stop_id,stop_code,stop_name,stop_lat,stop_lon,location_type
101294,TOBZGO,Bouzigues,43.1466788188,5.90201084,0
101229,TOBAGO,Baguiers,43.1502522121,5.9027359698,0
101617,TOPGAO,Pt des Gaux,43.1537266815,5.9150760111,0
101180,SMMAIN,Mairie (St Mandrier),43.0769148558,5.9284597598,0
100662,OLPIEO,Piédardant,43.123591825,5.8469516991,0
100660,OLPIEE,Piédardant,43.123693914,5.8471298113,0
100241,GAPIEN,St Pierre,43.1068803975,5.9920714203,0
101358,TOCTLO,Castel,43.1101600278,5.9392867307,0
101715,TOSPIS,St Pierre des Moulins,43.1594957734,5.9192680967,0
101714,TOSPIN,St Pierre des Moulins,43.1595080524,5.9189002932,0
100753,REPILE,Pilon,43.1703644141,5.9231893275,0
100783,SEBALO,Balaguier,43.0950392953,5.9087284061,0
100754,REPILO,Pilon,43.170253062,5.9230226386,0
101660,TOPTAN,Pelletan,43.1097002053,5.9366433473,0
100149,GABOWS,Bowling,43.1436236372,6.0251013556,0
101621,TOPICN,Les Pins (Claret),43.1364038732,5.9218335996,0
101622,TOPICS,Les Pins (Claret),43.1364988375,5.9224903961,0
101625,TOPIVE,Les Pins (Valbertrand),43.1436140475,5.8951762817,0
101627,TOPIVO,Les Pins (Valbertrand),43.1437837639,5.8952113448,0
101340,TOCMSO,C.N.M.S.S.,43.1115176702,5.9419741267,0
102154,VAHSOS,Hameau du soleil,43.1475724403,5.9798190281,0
101197,TO3PIN,3 Pins (Ste Anne),43.1354921152,5.932681906,0
100820,SECENN,Seyne Centre,43.1012133257,5.8833995614,0
101198,TO3PIO,3 Pins (Ste Anne),43.1359379883,5.9327957409,0
101654,TOPSJG,Pt  St Jean,43.1246232863,5.956338349,0
101656,TOPSJS,Pt St Jean,43.124516661,5.9557668346,0
100961,SEPLAN,Plane,43.0924238483,5.9021973729,0
100962,SEPLAS,Plane,43.0924254906,5.9024183559,0
100244,GAPLAS,Planquette,43.132477849,6.0173008852,0
100243,GAPLAN,Planquette,43.1324385869,6.0173966177,0
100663,OLPLAN,Plantade,43.1349518277,5.8441573348,0
101230,TOBALN,Balcons,43.1394963453,5.9237580004,0
100664,OLPLAS,Plantade,43.134947578,5.8445623106,0
101504,TOLIBN,Liberté,43.1255042466,5.9301422705,0
100213,GALISE,Liserons,43.1292440555,6.0218954438,0
101408,TOFLAO,Fort Lamalgue,43.1101442731,5.942698261,0
101484,TOJAMS,Jardin Mistral,43.1092289754,5.9458447069,0
101519,TOMACN,Macé,43.1376025999,5.9055747067,0
101520,TOMACS,Macé,43.1374704238,5.905763,0
101822,VAPONO,Ponant,43.132367463,5.9876366031,0
101821,VAPONE,Ponant,43.1323820753,5.987735773,0
101747,TOTOCN,Toucas,43.1102489201,5.9489406679,0
101231,TOBALS,Balcons,43.139375077,5.9244259131,0
101620,TOPIBE,Pinède (La Barre),43.1177360776,5.9592076538,0
101713,TOSPAS,St Paul,43.1109693716,5.9489122334,0
101227,TOBACO,Bon Accueil,43.1130021619,5.9457007796,0
100093,CRHDUN,Haute Durande,43.118372682,6.0776647509,0
100146,GAAPRS,Auberge Provençale,43.1346923154,6.0352869921,0
101637,TOPOLN,Polygone,43.1079227123,5.9319905255,0
101638,TOPOLS,Polygone,43.1077986466,5.9322037198,0
100145,GAAPRN,Auberge Provençale,43.1348410775,6.035407087,0
100125,CRRUYS,La Ruytèle,43.1315135662,6.0546455538,0
101643,TOPONO,Poncette,43.121233968,5.9807298625,0
101165,SMBAON,Baou,43.0726121835,5.9137898344,0
101642,TOPONE,Poncette,43.1210592871,5.9808415789,0
101596,TOPCAN,Pontcarral,43.1262470363,5.8973560095,0
101597,TOPCAS,Pontcarral,43.126229204,5.8987055259,0
101661,TOPTLE,Ponteil,43.1321280198,5.9187182466,0
101662,TOPTLO,Ponteil,43.1312683763,5.919413781,0
100967,SEPORO,Port (La Seyne),43.1005782871,5.882206793,0
101495,TOLAPN,Laporterie,43.127076698,5.9417088871,0
101496,TOLAPS,Laporterie,43.1269376308,5.9415651068,0
100246,GAPOSO,Poste (La Garde),43.1222506824,6.0099795622,0
100361,HYCDLN,Clair de Lune,43.0405454772,6.1250299319,0
100245,GAPOSE,Poste (La Garde),43.1224207776,6.0100026991,0
101657,TOPSTN,Poste (la Rode),43.1202618904,5.9427061354,0
101658,TOPSTS,Poste (la Rode),43.1201392153,5.942342404,0
101645,TOPOUE,Poudrière,43.1548791497,5.9155776782,0
101646,TOPOUO,Poudrière,43.1547208668,5.915469552,0
100247,GAPOUN,Pouverel,43.1130594793,5.9962818088,0
100248,GAPOUS,Pouverel,43.1130085592,5.9961926371,0
101650,TOPRAO,Prairie,43.1249022838,5.9661787249,0
101649,TOPRAE,Prairie,43.1251296721,5.9666350985,0
101677,TOREBN,Reboul,43.1127313196,5.9419887762,0
100304,HYAMIO,L'Amiral,43.094580733,6.1309426062,0
101671,TORAVO,M. Ravel,43.1135237167,5.9427626986,0
100996,SESEYS,La Seyne,43.101170282,5.8909447696,0
100995,SESEYN,La Seyne,43.1011743006,5.8905522827,0
101191,SMPREO,Président,43.0792369529,5.9230346811,0
101190,SMPREE,Président,43.0789293193,5.9233590385,0
100249,GAPREN,Prévert,43.1201708886,6.0011049728,0
100250,GAPRES,Prévert,43.1201710711,6.0013628184,0
101186,SMPINN,Pin Rolland,43.0770996751,5.9062416168,0
101670,TORAVE,M. Ravel,43.1133984822,5.9427425756,0
101694,TOROOE,F. Roosevelt,43.1193445019,5.9384252924,0
100411,HYFDHE,Font des Horts,43.0864695044,6.1219897512,0
101187,SMPINO,Pin Rolland,43.0774504786,5.9048893436,0
101188,SMPINS,Pin Rolland,43.07698627,5.9064063382,0
100392,HYCTBO,Costebelle,43.1051823508,6.1216124029,0
100251,GAPRON,Terre Promise,43.1076192288,5.988865454,0
100252,GAPROS,Terre Promise,43.1075409421,5.9877311839,0
101651,TOPRON,Pt des Routes,43.1370579726,5.9092374226,0
101652,TOPROS,Pt des Routes,43.1369421076,5.909475842,0
101664,TOPVIN,Providence,43.1263819208,5.9599238897,0
101665,TOPVIS,Providence,43.1261307594,5.9596379407,0
101653,TOPRUN,Pruneau,43.1202833589,5.9538185754,0
101232,TOBARN,Baratier,43.1124534926,5.9678119961,0
102103,VAMNPO,Minimes,43.1428781985,5.9795340035,0
101587,TOPASN,Passerelle,43.1291042664,5.8963540478,0
101588,TOPASS,Passerelle,43.1290439084,5.8965467768,0
101659,TOPSUO,Pt de Suve,43.1172778844,5.9809581539,0
101655,TOPSJN,Pt St Jean,43.1248110522,5.9561045913,0
101610,TOPESN,Pt Escaillon,43.1285300594,5.8914315517,0
101611,TOESCS,Escaillon,43.1286064845,5.8923817429,0
102102,VAMNPE,Minimes,43.1429527285,5.9797229612,0
100429,HYGUIN,Guiteco,43.1322130662,6.0849385798,0
101233,TOBARS,Baratier,43.1123266036,5.9678408179,0
101413,TOFOCN,Foch,43.1273453593,5.9202745953,0
101414,TOFOCS,Foch,43.1272943429,5.9204555991,0
101667,TOPVXS,Pelvoux,43.1510959636,5.9095443323,0
101666,TOPVXN,Pelvoux,43.1511681736,5.9095365342,0
101668,TOPYRN,Pyrotechnie,43.1186035618,5.8840293917,0
101669,TOPYRS,Pyrotechnie,43.1186483174,5.8853948589,0
100849,SEEBRE,Ecole Brassens,43.1118886312,5.8593844342,0
101234,TOBBSE,Barbès,43.1354478128,5.916260086,0
101748,TOTOUS,Touraine,43.1239098798,5.9636113442,0
101692,TOROEN,Roche (Serinette),43.1182505634,5.9639421759,0
101693,TOROES,Roche (Serinette),43.1184416467,5.9644084758,0
100851,SEEJRN,Ecole JJ Rousseau,43.0838337969,5.8707469605,0
101082,SIEMBE,Embarcadère (Brusc),43.075523748,5.8019213861,0
101673,TORDHE,Rodeilhac,43.1358527787,5.9119379759,0
101674,TORDHO,Rodeilhac,43.1346109493,5.9119590454,0
102122,SIENTS,Entreprises,43.1172582534,5.8453746007,0
100933,SEMTTE,Manette,43.0822835648,5.8574629018,0
101678,TOREGN,Régimbaud,43.1237933267,5.9510801658,0
101235,TOBBSO,Barbès,43.1347036782,5.9164593923,0
101679,TOREGS,Régimbaud,43.123665008,5.9506178124,0
100975,SEREGS,Régina,43.0989394925,5.9012509588,0
100974,SEREGN,Régina,43.0990072033,5.9011078806,0
101556,TOMREE,Mon Repos,43.1444651981,5.9017753785,0
101557,TOMREO,Mon Repos,43.1438038838,5.9016484174,0
100253,GARESN,Résédas,43.1330865647,6.0207907048,0
100254,GARESS,Résédas,43.1331021232,6.0211232804,0
101680,TORESE,Réservoir,43.1331596495,5.9539036014,0
101681,TORESO,Réservoir,43.1328243909,5.9537106004,0
100669,OLRESO,Résistance,43.1341900149,5.8460019637,0
100785,SEBARO,Barel,43.1067747428,5.8764882662,0
100667,OLRESE,Résistance,43.1355597036,5.8470187904,0
100668,OLRESN,Résistance,43.1351551961,5.845913478,0
101779,VABOSO,Bosquette,43.1370730107,5.9775329931,0
100124,CRRUYN,La Ruytèle,43.1316011853,6.0547126194,0
100941,SEOISS,Oiseaux,43.0991878449,5.8954000346,0
101672,TORCHO,Richard,43.1299284731,5.9424892667,0
101686,TORIGE,Rigoumel,43.1432871486,5.9077205714,0
101687,TORIGO,Rigoumel,43.1429216121,5.9081645949,0
101688,TORIPN,Ripelle,43.1653534031,5.936392414,0
100784,SEBARE,Barel,43.106972271,5.8767704443,0
101689,TORIPS,Ripelle,43.1652114451,5.9363343794,0
100981,SERIVS,Rives d'Or,43.0811292505,5.893780971,0
100979,SERIVN,Rives d'Or,43.0812275317,5.8935293986,0
100980,SERIVO,Rives d'Or,43.0816714598,5.8942438749,0
100978,SERIVE,Rives d'Or,43.0818085525,5.8944486468,0
101886,TORN8N,RN8,43.1282260427,5.8824124752,0
101690,TORN8O,RN8,43.1285957932,5.8812933367,0
100956,SEPEMS,Ponton Espace Marine,43.1030896973,5.8911001074,0
101283,TOBRTN,Barentine,43.124927469,5.9641052361,0
101691,TORN8S,RN8,43.1281445183,5.8827021392,0
100670,OLRNAS,Rue Nationale,43.137954887,5.8485771974,0
100486,HYMVNS,Mauvanne,43.1271726541,6.1898525141,0
100255,GAROBN,Robespierre,43.1350493027,6.0249200511,0
100256,GAROBS,Robespierre,43.1351550147,6.0252461392,0
100447,HYJDAS,Jean d'Agrève,43.0820333779,6.1550007872,0
100446,HYJDAN,Jean d'Agrève,43.0821077819,6.1549320965,0
100927,SEMOUE,Moulières (La Seyne),43.0806548957,5.8588600634,0
100258,GAROCO,Rocher (La Garde),43.1271735223,6.0133023015,0
101284,TOBRTS,Barentine,43.124991826,5.962734094,0
100257,GAROCE,Rocher (La Garde),43.1274335154,6.0135890633,0
101695,TORORN,Rochers (Petit Bois),43.1083641097,5.9618829351,0
101696,TORORS,Rochers (Petit Bois),43.1082681509,5.9620610158,0
100259,GAROLN,Rolland,43.1186386065,6.0056728477,0
100260,GAROLS,Rolland,43.1184670814,6.0054286393,0
100982,SEROLO,Rollin,43.1033224133,5.8799947856,0
101555,TOMOUS,Mourillon,43.1082740164,5.9520327466,0
100262,GAROOO,Roosevelt,43.1213390797,6.0119104255,0
100261,GAROOE,Roosevelt,43.1219905914,6.0123203868,0
101776,VAAVUN,Av de l'Université,43.137388075,6.0068195538,0
102105,CAPASO,Paradis Sud,43.1001288935,6.0666598044,0
101675,TORDNE,Rouden,43.1398707263,5.9130842306,0
101676,TORDNO,Rouden,43.1395859742,5.9129928398,0
100844,SECXRO,Croix Rouge,43.0839030743,5.8958295344,0
100843,SECXRE,Croix Rouge,43.0841723455,5.8961161052,0
100674,OLROUO,Roustidou,43.1299050011,5.8442057673,0
100673,OLROUE,Roustidou,43.1299556474,5.844307085,0
100963,SEPLNN,Plaines,43.0837598296,5.8754414996,0
101698,TORSTS,Roustan,43.1191612683,5.9596165808,0
101199,TO4ROO,4 ch.des Routes,43.1529121906,5.9038836234,0
101777,VAAVUS,Av de l'Université,43.1372900236,6.0065308237,0
100973,SEPTNE,Platanes,43.0990665095,5.8976997751,0
101594,TOPBZE,Place Bouzigues,43.1469591136,5.9025072435,0
101595,TOPBZO,Place Bouzigues,43.1468705835,5.9024649069,0
100985,SEROUO,Rouve (Corniche Giovannini),43.1018288263,5.8990120647,0
100984,SEROUE,Rouve (Corniche Giovannini),43.1016983145,5.8994212746,0
100738,PRVIGO,La Vigerie,43.1077329187,6.018148965,0
101468,TOHOME,Hôpital Ste Musse,43.124902434,5.974933375,0
101470,TOHOTE,Hôpital Ste Musse terminus,43.125976143,5.9756274896,0
100675,OLROYN,Royale,43.1323399948,5.8667517765,0
101281,TOBRNS,Barnier,43.1304996744,5.9281457249,0
100676,OLROYS,Royale,43.1319304589,5.8679914238,0
100758,REROUE,Roustane,43.1731423649,5.9253779397,0
100759,REROUO,Roustane,43.1730477366,5.9252491477,0
100989,SESABN,Sablettes,43.080482566,5.8964646508,0
100990,SESABS,Sablettes,43.0803189877,5.8965158813,0
100970,SEPSAS,Ponton Sablettes,43.0805176515,5.896491357,0
101731,TOSTSN,Stade (Serinette),43.1192018412,5.9655981927,0
100380,HYCOSO,Coste,43.130115346,6.0885966047,0
101280,TOBRNN,Barnier,43.1307121483,5.9285150945,0
101733,TOSTSS,Stade (Serinette),43.1192114983,5.9658443486,0
100760,RESALE,Salvatte,43.1696394233,5.9233529982,0
100761,RESALO,Salvatte,43.1694505322,5.9233535032,0
101699,TOSANE,Sandraly,43.1332619048,5.9262305453,0
101700,TOSANO,Sandraly,43.1327466866,5.9260387609,0
100267,GASAVN,Savels,43.1206384436,5.9982126073,0
100268,GASAVS,Savels,43.1209704174,5.9992896363,0
100270,GASCHO,Schweitzer,43.149781524,6.0400777999,0
100269,GASCHE,Schweitzer,43.1500380656,6.040462853,0
101481,TOITAO,Porte d'Italie,43.1220844141,5.9366446264,0
100604,HYYACS,Yacht Club,43.083126364,6.1568893921,0
100678,OLSEIN,Seigneur,43.1383594026,5.8625649913,0
100679,OLSEIS,Seigneur,43.138382745,5.8637699314,0
101703,TOSENE,Sénès,43.1244079607,5.9306508824,0
101704,TOSENO,Sénès,43.1248277279,5.9307384925,0
101719,TOSRTN,Serinette,43.1137763444,5.9603456115,0
101721,TOSRTS,Serinette,43.1136910185,5.9604752764,0
101717,TOSRES,Serre,43.1304987749,5.9106720471,0
101904,CABENO,Benoite,43.0984760319,6.0800169683,0
101716,TOSREN,Serre,43.1304934894,5.9100209128,0
100603,HYYACO,Yacht Club,43.0829383058,6.1563615305,0
100323,HYBIGS,Bigaradiers,43.1203556855,6.1351103171,0
100971,SEPSES,Ponton Seyne,43.102306277,5.8818959396,0
100401,HYESPO,Espace 3000,43.1072538952,6.1286600132,0
100425,HYGOLE,Golf Hôtel,43.1315074081,6.1549194899,0
101708,TOSIBS,Siblas,43.1309068729,5.9366563502,0
101707,TOSIBN,Siblas,43.1309854417,5.9372629694,0
100999,SESJEN,St Jean (La Seyne),43.1070722943,5.8650057471,0
100390,HYCSMO,Clinique Ste Marguerite,43.1149702283,6.1230910652,0
100895,SELAFE,Laffran,43.0943863381,5.8769046089,0
100680,OLSLAN,St Laze,43.1352363688,5.8577071892,0
100681,OLSLAS,St Laze,43.1349970993,5.858146904,0
101192,SMPSMS,Ponton St Mandrier,43.0784112452,5.9280868972,0
100903,SELBAE,La Barre (La Seyne),43.0990094173,5.8826010634,0
101193,SMSMAT,St Mandrier,43.0811589411,5.9268718791,0
101189,SMPPRO,Ponton Président,43.0792492804,5.9250842943,0
100997,SESHOE,St Honorat,43.0951120944,5.8769860536,0
100563,HYSIMO,Simenon,43.1153354088,6.1333669923,0
101073,SICUBS,Curet Bas,43.0934725062,5.8244019601,0
100274,GASMAO,Ste Marie,43.1384330977,6.0327026606,0
100273,GASMAE,Ste Marie,43.1382192922,6.0323818762,0
101011,SETISN,Tisot,43.113923645,5.8655976368,0
101639,TOPON1,Portes d'Ollioules et de Toulon,43.1285003724,5.8798262903,0
101720,TOSRTO,Serinette,43.1140653223,5.9600446256,0
101718,TOSRTE,Serinette,43.1142288033,5.9602636147,0
101701,TOSCIN,Sans Souci,43.1531128835,5.9116350965,0
101702,TOSCIS,Sans Souci,43.1530459724,5.9117537793,0
101629,TOPIXO,Pie X,43.120394151,5.9411797447,0
101282,TOBRRE,La Barre,43.1213315375,5.9571380615,0
101074,SICUHE,Curet Haut,43.0946993621,5.8300841974,0
101697,TOROSN,Ste Roseline,43.1536387928,5.9104270716,0
101081,SIEHAS,Estève Haut,43.1127509329,5.8239253703,0
100265,GASACO,Stade (F.Accusano),43.1198282224,6.0108562591,0
101104,SIMALE,Malogineste,43.082801934,5.8121005404,0
101724,TOSTBN,Stade (Bon Rencontre),43.1267874566,5.901122113,0
101725,TOSTBS,Stade (Bon rencontre),43.1270286436,5.9027946598,0
100264,GASACN,Stade (F.Accusano),43.1204826758,6.0111804397,0
100266,GASACS,Stade (F.Accusano),43.1204023257,6.0111630309,0
101640,TOPON2,Portes d'Ollioules et de Toulon,43.1284906566,5.8801203812,0
101005,SESTAN,Stalingrad,43.1052021612,5.8690887046,0
101823,VASCLS,Ste Claire,43.1358580139,6.0052727594,0
101110,SIMEDO,Méditerranée,43.1008689304,5.8120867922,0
101000,SESJES,St Jean (La Seyne),43.1070725904,5.8647234622,0
101006,SESTAS,Stalingrad,43.1046672678,5.8700377644,0
101138,SIRAIO,Raimu (Six Fours),43.1057628356,5.8267053896,0
101734,TOSUPE,Super Toulon,43.1387226182,5.9275292159,0
101735,TOSUPO,Super Toulon,43.1384162364,5.9275469352,0
100609,OLBAUE,La Baume,43.1322946901,5.8453829094,0
100804,SEBTON,Bartolini,43.112138801,5.8654513741,0
101730,TOSTRO,Strasbourg,43.1244899711,5.934106189,0
101729,TOSTRN,Strasbourg,43.1246813207,5.9340322042,0
101728,TOSTRE,Strasbourg,43.1242595689,5.9353441612,0
100277,GASULS,Sully,43.1081774968,5.9875260614,0
100960,SEPEYS,Peyre,43.1066424527,5.8734116246,0
101136,SIPUEO,Puerats,43.0887739865,5.8190008243,0
100801,SEBTAO,Tamaris,43.0911248561,5.9004235413,0
100800,SEBTAE,Tamaris,43.0914903964,5.9007897555,0
101166,SMBATE,Bar Tabac,43.077902,5.9287912338,0
100805,SEBTOS,Bartolini,43.1121556469,5.8657592853,0
101167,SMBATO,Bar Tabac,43.0778375368,5.9288362857,0
100972,SEPTAO,Ponton Tamaris,43.0909678392,5.9010887197,0
100065,CRCHJS,Château Jaune,43.1313220102,6.061203299,0
100064,CRCHJN,Château Jaune,43.1314121783,6.0611968558,0
100060,CRBONO,Campagne Bonifay,43.1306414349,6.0714625989,0
100059,CRBONE,Campagne Bonifay,43.1317131288,6.070132162,0
100092,CRHBEN,Hameau Bernard,43.1285698204,6.0790277727,0
100690,OLTASN,Tassy,43.1297619307,5.8759378689,0
100691,OLTASS,Tassy,43.1297964589,5.8754365552,0
101738,TOTAUO,Tauriac,43.1316534787,5.8851041415,0
101737,TOTAUE,Tauriac,43.131696733,5.8851559269,0
101739,TOTELN,Téléphérique,43.1374245491,5.9329869141,0
101740,TOTELS,Téléphérique,43.1373889299,5.9335127702,0
101741,TOTESN,Tési,43.1366219001,5.8982805913,0
101742,TOTESS,Tési,43.1365415306,5.8982633352,0
101743,TOTETE,Tétras,43.1139558506,5.9411447841,0
101745,TOTHIN,Thierry,43.1194202454,5.950609057,0
101746,TOTHIS,Thierry,43.1190684892,5.9498380565,0
101827,VATHOO,Thouar (Coupiane),43.1311531904,5.9921277339,0
100700,PR4SAN,4 Saisons,43.1077516708,6.0301554389,0
100340,HYBRTS,Brosset (Hyères),43.1201004903,6.1405329839,0
101826,VATHOE,Thouar (Coupiane),43.1311832419,5.9923015646,0
100279,GATHOO,Thouar (La Garde),43.128894276,6.0082302114,0
100278,GATHOE,Thouar (La Garde),43.1290246991,6.0083613318,0
101562,TOMTIE,Martille,43.1119035727,5.9529481901,0
101576,TOORIN,D'Oriano,43.1128465912,5.9513870271,0
101663,TOPTOS,Ponton Toulon,43.1203499644,5.9309744746,0
101087,SIFFIO,Font de Fillol,43.0979645469,5.8267480453,0
100280,GATOUO,Tourrache,43.14908918,6.0452786094,0
101053,SICFFO,Collège F Fillol,43.0972335588,5.8262742211,0
101052,SICFFE,Collège F Fillol,43.0974232343,5.8262489033,0
101289,TOBTBN,Batterie Basse,43.1092169016,5.9661838718,0
101142,SIREPO,Repentance,43.0906358139,5.8214815874,0
101749,TOTRAE,Tranchée,43.1370805811,5.9147651759,0
101750,TOTRAO,Tranchée,43.1371524,5.9144994649,0
101141,SIREPE,Repentance,43.0907078313,5.8217558919,0
101067,SICRAO,Ch. Rayolet,43.0870296172,5.8151163389,0
101066,SICRAE,Ch. Rayolet,43.0868544848,5.8149707956,0
101124,SIPBRO,Port du Brusc,43.0744291299,5.7993408614,0
100736,PRTRAO,Traversier,43.0974399687,6.0250632024,0
100735,PRTRAE,Traversier,43.0968479223,6.0255407344,0
101290,TOBTBS,Batterie Basse,43.1090485755,5.966639714,0
100281,GATRIN,Tristan,43.1296474843,6.0156462245,0
100282,GATRIS,Tristan,43.1296005102,6.0157046204,0
101751,TOTRON,Terres Rouges,43.1485399814,5.975691573,0
101752,TOTROS,Terres Rouges,43.1482549357,5.9761403162,0
101753,TOTRUE,Trucy,43.1344114284,5.9268180404,0
101754,TOTRUO,Trucy,43.134442045,5.9267094281,0
101755,TOTULE,Tulipes,43.133367428,5.8819557084,0
101756,TOTULO,Tulipes,43.1332274698,5.8818365664,0
101019,SETURS,Turbines,43.1016418956,5.8940789792,0
100641,OLFRAN,Franca,43.125780415,5.8319834496,0
101018,SETURN,Turbines,43.1016157498,5.8937828093,0
101757,TOUBAN,Uba (Favières),43.1510093629,5.9697057215,0
101758,TOUBAS,Uba (Favières),43.1512427632,5.9689219911,0
101782,VACAMN,Campus La Garde/La Valette,43.1378630234,6.0139609322,0
100156,GACAMN,Campus La Garde/La Valette,43.1383052683,6.0183738012,0
100157,GACAMS,Campus La Garde/La Valette,43.1380591698,6.0184685865,0
100283,GAUNSN,Université Sud,43.1349581854,6.0197192956,0
100284,GAUNSS,Université Sud,43.1343378252,6.0191883413,0
100608,OLBASS,Bastide,43.1239496209,5.8321423472,0
101765,TOVENN,Vence,43.1374809845,5.9286184076,0
101759,TOVABE,Valbertrand,43.140092817,5.8942338693,0
101760,TOVABO,Valbertrand,43.1402673769,5.8938516619,0
101829,VAVALS,Valéry,43.1285877031,5.9887597818,0
101828,VAVALN,Valéry,43.1286098247,5.9886383908,0
101790,VADGA2,De Gaulle,43.1367873039,5.9854117308,0
101025,SEVRNS,La Verne,43.0747166109,5.8753274316,0
101024,SEVRNN,La Verne,43.0748521216,5.8755811033,0
101123,SIPBRE,Port du Brusc,43.074302042,5.7999342842,0
101089,SIGABN,Gabois,43.0962492471,5.8313685816,0
100703,PRBATO,La Bâtie,43.1101096852,6.0165087363,0
101764,TOVAUS,Vauban,43.1257319282,5.9279095284,0
101194,SMVBOE,Vert Bois,43.0782079872,5.911033577,0
101195,SMVBOO,Vert Bois,43.0781757724,5.9106512628,0
100762,REVALE,Val D'Ardènes,43.1655673566,5.9286649957,0
100763,REVALO,Val D'Ardènes,43.1655902318,5.9285189808,0
100203,GAJAVE,Jardin Veyret,43.1286662654,6.0140976356,0
102066,CACALE,Californie,43.0858384892,6.0998108273,0
101767,TOVIES,La Vierge,43.1639432587,5.9323109712,0
100702,PRBATE,La Bâtie,43.1104016339,6.0166501617,0
101766,TOVIEN,La Vierge,43.1638096973,5.9311968237,0
100285,GAVPUN,Vieux Puits,43.1266682572,6.0062585574,0
100286,GAVPUS,Vieux Puits,43.1266753054,6.0065782671,0
101768,TOVINE,Vincent,43.1313632614,5.9262594456,0
101769,TOVINO,Vincent,43.1312208921,5.9262137243,0
100699,OLVIOO,Violettes,43.1367003312,5.8599581235,0
100698,OLVIOE,Violettes,43.1367660958,5.8601463561,0
100095,CRHEBS,Hameau Bernard,43.1284249515,6.0790551899,0
101027,SEWALS,Wallon,43.1138329923,5.8686241271,0
101291,TOBTLE,Battarel,43.1521252106,5.9034785795,0
101026,SEWALN,Wallon,43.1142953573,5.8690575975,0
101898,CAANEE,Anémones,43.0880654149,6.0991464586,0
102104,CAANEO,Anémones,43.0880171604,6.0989837732,0
100290,GAZITO,ZI Toulon Est,43.1460681923,6.0397772911,0
100289,GAZITE,ZI Toulon Est,43.1466677913,6.0398650299,0
101771,TOZOUN,Zoursons,43.1312458331,5.8846492237,0
101770,TOZOUE,Zoursons,43.1309863055,5.884338517,0
101004,SESMAO,Stade Marquet,43.1088913888,5.8772076191,0
101292,TOBTLO,Battarel,43.1519350898,5.9032456793,0
101003,SESMAE,Stade Marquet,43.1091659748,5.8773349811,0
100875,SEGVEO,Gai Versant,43.1117704358,5.8777161568,0
100874,SEGVEE,Gai Versant,43.1120180967,5.877841871,0
100869,SEGART,Gare (Seyne/Six Fours),43.1167316646,5.8767201475,0
101921,CAPANS,Paradis Nord,43.1052321732,6.0637130798,0
101909,CACURN,Pierre Curie,43.1033961465,6.0655581433,0
101927,CARICO,Pr Richet,43.1032488083,6.066432375,0
101897,CAAL1N,Albert 1er,43.1017151823,6.0670817338,0
102097,CARAIO,Raimu,43.1015524849,6.0683968172,0
101922,CAPASE,Paradis Sud,43.1001169366,6.0667449477,0
101932,CAVRON,Vieux Roubauds,43.0987904741,6.0722926456,0
101929,CAROUN,Corniche des Roubauds,43.0983440255,6.07709951,0
101908,CACIME,Cimetière (Carqueiranne),43.0957766354,6.0777304423,0
101644,TOPOTS,Portes d'Ollioules et de Toulon,43.128348268,5.8800747763,0
100701,PR4SAS,4 Saisons,43.1072380678,6.0283548419,0
100119,CRPIOS,Les Pioux,43.1406935723,6.0518857649,0
101913,CAGBAE,Grande Bastide,43.0892071769,6.0711308566,0
101924,CAPORO,Port Carqueiranne,43.0875044361,6.0750822338,0
102142,CAPPSE,Pins Penchés 2,43.0884509704,6.078628834,0
100605,OL2FRN,Deux Frères,43.1275509611,5.8521045516,0
100606,OL2FRS,Deux Frères,43.1274160514,5.8515560645,0
100658,OLPEPN,Pépinières,43.1255968812,5.8362326904,0
101259,TOBLIN,Beaulieu,43.1324851228,5.9762356728,0
101419,TOFOUE,Fourrière,43.119257681,5.946891122,0
102123,SIEURN,L'Europe,43.1174539515,5.8424157133,0
102121,SIENTN,Entreprises,43.1173801433,5.8452224427,0
100908,SELERN,Léry,43.1095040604,5.8492838789,0
100909,SELERS,Léry,43.1092890915,5.8500808709,0
101260,TOBLIS,Beaulieu,43.1321661909,5.976092695,0
100882,SEHOTE,Hôtels,43.1063021345,5.8509418216,0
100948,SEPAQN,Parc Aquatique,43.104653556,5.8523998985,0
100949,SEPAQS,Parc Aquatique,43.1045496077,5.8525531041,0
101023,SEVIGS,Vignelongue,43.1050220722,5.8559694577,0
101022,SEVIGN,Vignelongue,43.1057277454,5.8566631092,0
100811,SECAOS,Cap d'Or,43.1074556867,5.8618257047,0
100810,SECAON,Cap d'Or,43.1076051558,5.8622030831,0
100819,SECECS,Centre Commercial,43.1099009756,5.8591154857,0
100818,SECECN,Centre Commercial,43.1098652329,5.8585609413,0
100904,SELBAO,La Barre (La Seyne),43.0989518591,5.8824379763,0
100610,OLBAUO,La Baume,43.1327880922,5.845695425,0
100905,SELBEE,Lycée Beaussier,43.0985039982,5.8793913973,0
100767,SE4MOO,Quatre Moulins,43.0974984422,5.8779795843,0
100825,SECIMO,Cimetière,43.0961848891,5.8766347856,0
100998,SESHOO,St Honorat,43.0949521634,5.8769271323,0
100896,SELAFO,Laffran,43.0938619192,5.876172896,0
100795,SEBRMN,Brémond,43.0893290197,5.8680044215,0
100797,SEBRMS,Brémond,43.0893703618,5.8683873363,0
100457,HYLBRS,Léon Bérard,43.0843317434,6.122671362,0
100812,SECARN,Carrière,43.089383264,5.8658113666,0
100950,SEPARN,Paradis (La Seyne),43.0886928233,5.8594622083,0
100951,SEPARS,Paradis (La Seyne),43.088651973,5.8593370081,0
100786,SEBASN,Bastian,43.0884562222,5.8568096754,0
100787,SEBASS,Bastian,43.0883044518,5.8567758565,0
101113,SIMOUN,Mouton,43.0884310635,5.8529185465,0
101114,SIMOUS,Mouton,43.0884847761,5.8526518868,0
101041,SIBEAN,Beaugency,43.0913589261,5.8448024457,0
100705,PRBAYS,Bayette,43.1085025858,6.0344632452,0
101042,SIBEAS,Beaugency,43.0912671714,5.8448582076,0
101160,SISVEO,Stade du Verger,43.0933795276,5.8435144066,0
101159,SISVEE,Stade du Verger,43.0934388251,5.844450614,0
101096,SIHVIS,Hôtel de Ville (Six Fours),43.0933922327,5.8409260056,0
101095,SIHVIN,Hôtel de Ville (Six Fours),43.0936012948,5.8405828714,0
101134,SIPTBS,Pt du Brusc,43.0942710731,5.8360465033,0
101133,SIPTBN,Pt du Brusc,43.0946189984,5.8347546345,0
101090,SIGABS,Gabois,43.0963114824,5.8311146576,0
101088,SIFFIS,Font de Fillol,43.0981001816,5.828106174,0
101035,SIAUSE,Aussel,43.0989229095,5.8279719911,0
100704,PRBAYN,Bayette,43.1086748882,6.0346830009,0
101029,SIAIGO,Aiguebelle,43.1017485062,5.8270879152,0
101137,SIRAIE,Raimu (Six Fours),43.1056441632,5.8267595617,0
101033,SIAUGE,Augias,43.1092773688,5.827863612,0
101057,SICHAS,Chapelle (Six Fours),43.1105989336,5.8281524409,0
101056,SICHAN,Chapelle (Six Fours),43.1111272754,5.8271165969,0
101080,SIEHAN,Estève Haut,43.1128243294,5.8238807175,0
101118,SIOURS,Oursins,43.1135465542,5.8204751667,0
101117,SIOURN,Oursins,43.1138289497,5.8200871798,0
101070,SICSIN,Cap Sicié,43.1131162975,5.817662695,0
100504,HYPANE,Panhard,43.107576281,6.1215734246,0
101091,SIGALN,Galets,43.1142999505,5.8149969057,0
101092,SIGALS,Galets,43.1142606369,5.8148226765,0
101063,SICOLO,Colline (Six Fours),43.1149503316,5.8118568933,0
101062,SICOLE,Colline (Six Fours),43.1155853617,5.8116865551,0
101148,SIRPPT,Reppe,43.117581881,5.8116843502,0
101078,SIEBIN,El Biard,43.1094285169,5.830953629,0
101079,SIEBIS,El Biard,43.1091492773,5.8312435329,0
101043,SIBEBN,Bernard Bas,43.108674114,5.8331294526,0
101115,SINEGN,Négadoux,43.1082494362,5.8439294211,0
101116,SINEGS,Négadoux,43.1080894782,5.8424958775,0
100452,HYLAGS,Agricampus,43.1196723979,6.1510644345,0
101127,SIPERN,Pertuade,43.1084343328,5.8368953176,0
101128,SIPERS,Pertuade,43.1080692268,5.8381618919,0
101146,SIROPN,Rocade des Playes,43.108621175,5.8281306636,0
101147,SIROPS,Rocade des Playes,43.108273126,5.8269435176,0
101047,SICARN,Carredon,43.1074760314,5.8202059397,0
101048,SICARS,Carredon,43.1074562691,5.819983815,0
101153,SISAUN,Sauviou,43.107945511,5.8157175564,0
101154,SISAUS,Sauviou,43.1078643353,5.8157249238,0
101156,SISBAO,Square des Bains,43.1104847114,5.8125692205,0
101155,SISBAE,Square des Bains,43.1100909795,5.8138956191,0
101295,TOBZLN,Bazeilles,43.1127351173,5.9389323431,0
100066,CRCHLN,Chemin Long,43.1314844256,6.0505542301,0
101158,SISCEO,Square Cesmat,43.1125520645,5.8114911386,0
101121,SIPBON,Plage Bonnegrâce,43.1157051989,5.8079865894,0
101122,SIPBOS,Plage Bonnegrâce,43.1156869974,5.8077154309,0
101044,SIBRUE,Le Brusc,43.0711831853,5.7945950515,0
101083,SIEMBO,Embarcadère (Brusc),43.0762240747,5.8030675593,0
101102,SIMAIN,Le Mail,43.0771309401,5.8047782232,0
101103,SIMAIS,Le Mail,43.0766298694,5.8063673115,0
101084,SIFAIE,Faisses,43.0789359116,5.8098553238,0
101105,SIMALO,Malogineste,43.0829686487,5.8119511114,0
100470,HYMDLS,Marie des Lions,43.1221448351,6.1198671891,0
101296,TOBZLS,Bazeilles,43.1130180332,5.9396129466,0
101135,SIPUEE,Puerats,43.088840218,5.8191766079,0
101072,SICUBN,Curet Bas,43.0937094474,5.8243058757,0
101075,SICUHO,Curet Haut,43.0945005161,5.8298389803,0
101040,SIBARO,Barras,43.0894943753,5.8294739081,0
101039,SIBARE,Barras,43.0894790153,5.8296692971,0
101065,SICORO,Courtaude,43.0866564069,5.8252160338,0
101064,SICORE,Courtaude,43.0869314607,5.8258829809,0
101098,SIJAUO,Jaumard,43.0842062969,5.8225770117,0
101097,SIJAUE,Jaumard,43.0841843641,5.8226983727,0
101058,SICMAE,Ch. Malogineste,43.0810296728,5.8190477669,0
101499,TOLBAE,La Barre (Serinette),43.1185888989,5.9667013209,0
101059,SICMAO,Ch. Malogineste,43.081400262,5.8192664701,0
101145,SIROBO,Roches Blanches,43.0764909445,5.8156451778,0
101144,SIROBE,Roches Blanches,43.0764775973,5.8157793105,0
101119,SIPALN,Av des Palmiers,43.0777341868,5.8094761617,0
101120,SIPALS,Av des Palmiers,43.077611214,5.8088308421,0
101132,SIPRUO,Prud'homie,43.0776303945,5.8040722604,0
101068,SICROE,Le Cros,43.0798748005,5.8061334516,0
101069,SICROO,Le Cros,43.080941119,5.8065289344,0
101106,SIMARE,Marestan,43.0848066162,5.8076820369,0
101107,SIMARO,Marestan,43.0842842169,5.8074297088,0
101500,TOLBAO,La Barre (Serinette),43.1181973315,5.9665784035,0
101139,SIRAYE,Rayolet,43.08749115,5.8097579072,0
101140,SIRAYO,Rayolet,43.08768082,5.8097325393,0
101037,SIBAIE,Baigneurs,43.0910333727,5.8111740669,0
101038,SIBAIO,Baigneurs,43.0903709471,5.810802799,0
101125,SIPCOE,Port Coudoulière,43.0967964513,5.8126017755,0
101126,SIPCOO,Port Coudoulière,43.0970838184,5.8123368804,0
101109,SIMEDE,Méditerranée,43.100928184,5.8122008208,0
101094,SIHOIO,Les Hoirs,43.1030835334,5.8128464128,0
101093,SIHOIE,Les Hoirs,43.1037832122,5.8129009384,0
101149,SIRSOE,Rayons de Soleil,43.107307098,5.8143288572,0
101238,TOBCAT,Beaucaire,43.1348872663,5.8827738906,0
101150,SIRSOO,Rayons de Soleil,43.1072123422,5.8142003951,0
101045,SIBUCN,Bucarin,43.1043626512,5.8183238322,0
101046,SIBUCS,Bucarin,43.1036026312,5.819296521,0
101060,SICODN,Coudoulière,43.1012120854,5.8233981793,0
101061,SICODS,Coudoulière,43.1010481405,5.8234618841,0
101086,SIFFIN,Font de Fillol,43.0988562898,5.8272561729,0
101050,SICEZN,Cézanne (Six Fours),43.0970762036,5.841297512,0
101051,SICEZS,Cézanne (Six Fours),43.0968858896,5.8416172624,0
101151,SIRSTN,Rue du stade,43.0967636921,5.8453526907,0
100463,HYMADN,Madrague,43.0397486898,6.1098958415,0
101152,SIRSTS,Rue du Stade,43.0967504629,5.8457568508,0
101131,SIPOUN,Pourquier,43.0951299383,5.8491063328,0
101100,SILOMN,Lombard,43.0933181614,5.8527998131,0
100952,SEPBON,Petit Bois (La Seyne),43.0921540588,5.8638706232,0
101236,TOBCAE,Beaucaire,43.1348044013,5.8825600217,0
101055,SICFOO,Chemin du Fort,43.0949661397,5.8472433659,0
101054,SICFOE,Chemin du Fort,43.0949074762,5.8473870446,0
101077,SIDENO,Denans,43.0966805118,5.8498145232,0
101076,SIDENE,Denans,43.0971534114,5.8507514973,0
101112,SIMIMO,Mimosas (Six Fours),43.0999942742,5.8529744144,0
100910,SELMAO,Le Mai,43.0709555464,5.854084086,0
100889,SEJANE,Janas,43.0735837975,5.8572990536,0
101237,TOBCAO,Beaucaire,43.1345151055,5.8823334313,0
100987,SEROYO,Campagne Roy,43.076241382,5.8587986733,0
100928,SEMOUO,Moulières (La Seyne),43.0803056789,5.8588141668,0
100934,SEMTTO,Manette,43.0821212115,5.8574775123,0
100834,SECPAN,Croix de Palun,43.0842598105,5.8569825525,0
100836,SECPAS,Croix de Palun,43.0843697735,5.8574677723,0
101031,SIAUDN,Audibert,43.0908122352,5.8483152955,0
100067,CRCHLS,Chemin Long,43.1314145176,6.0512742712,0
100168,GACITS,Citronniers,43.117101627,6.0027511024,0
100236,GAPAPO,Papin,43.112996471,6.001286518,0
100439,HYHORE,Les Horts,43.0913564279,6.1229247175,0
100499,HYOLIS,Oliveraie,43.0916080553,6.1259848812,0
100414,HYFONS,Fontètes,43.1105816016,6.1688895846,0
100768,SE8MAE,8 Mai,43.1071211773,5.8782524999,0
100511,HYPEUN,Peupliers,43.0929025407,6.1404785692,0
102084,REDARN,Dardennes,43.1667254736,5.931145639,0
102083,RECOQS,Coquelicot,43.1688193469,5.9303918217,0
102086,REGARO,Gardanne,43.1708861011,5.928567189,0
100516,HYPIES,Pierras,43.0393382895,6.1143934284,0
102082,RECOMN,Comoni,43.1778879938,5.9249368002,0
100522,HYPMAO,Pins Martimes,43.0932176852,6.1634625279,0
101807,VALECN,Leclerc,43.1361632429,5.9852493387,0
102039,VAROBO,Roberti,43.1426284694,5.9882018991,0
102038,VAROBE,Roberti,43.1425679457,5.988394577,0
102031,VAFJEN,Fontaine Jeanne,43.1451414005,5.9833376693,0
100537,HYPSUO,Plein Sud,43.096586519,6.1668531882,0
102092,VACOUN,Coudon 1,43.1562191821,5.9688431673,0
102025,VACOUS,Coudon 1,43.1557496837,5.9694277738,0
102028,VACTON,Cimetière Tourris,43.159360625,5.9700981743,0
102021,VACAON,Caounes,43.142405503,5.9981734148,0
102018,VABOU2,Bouttuen 2,43.1426056157,5.9954717057,0
101241,TOBEGS,Béguin,43.1160107554,5.960228498,0
102016,VABIGN,Bigue,43.1415561636,6.0032902298,0
102017,VABIGS,Bigue,43.1417801524,6.004631011,0
102035,VAPARN,Partégal,43.1426186025,6.007202416,0
102036,VAPARS,Partégal,43.1425332177,6.0073320764,0
102041,VASUPO,Supière,43.1444222443,6.0089020235,0
102034,VAPALS,Palmiers (La Valette),43.1436648662,6.0157812295,0
102033,VAMOUN,Moulières,43.1455363566,6.01602377,0
101242,TOBELE,Bel Air,43.1416262109,5.9022257994,0
102032,VAGUCO,Gueules Cassées,43.1487916963,6.014205155,0
102020,VACALS,Calabro,43.1461410236,6.0062479932,0
102019,VACALN,Calabro,43.1462462042,6.0063284041,0
102042,VATORE,Tortel,43.1457679073,6.0042711442,0
102043,VATORO,Tortel,43.145335095,6.0037767853,0
102040,VAROIN,Roitelet,43.1429753447,5.9928053283,0
101243,TOBELO,Bel Air,43.1414100043,5.9025071576,0
102070,VAROIS,Roitelet,43.1428069003,5.9932613599,0
102044,VAVIOE,Violettes (La Valette),43.1412751663,5.9883247908,0
102045,VAVIOO,Violettes (La Valette),43.1413096,5.9881058966,0
100750,REMALS,Malvallon,43.1709586499,5.9215552152,0
100708,PRBELE,Bellevue (Le Pradet),43.1023378938,6.0230817888,0
102029,VADGA1,De Gaulle,43.1369035583,5.9854313856,0
102037,VAPICO,Picot,43.1468235454,6.0110084214,0
101420,TOFOUO,Fourrière,43.1191101581,5.9464644424,0
100755,REREVE,Revest,43.1766456152,5.9255105926,0
100709,PRBELO,Bellevue (Le Pradet),43.102138646,6.0228603678,0
101808,VALECS,Leclerc,43.1360492682,5.98489824,0
100388,HYCRIO,Collège Rivière,43.1294693702,6.1555702076,0
100475,HYMO1N,Moulin 1er,43.1289662165,6.1558069867,0
100458,HYLCOE,Lycée Costebelle,43.0978020692,6.1242937926,0
100546,HYPYAO,Pyanet,43.1243435116,6.1512390349,0
100545,HYPYAE,Pyanet,43.1244494529,6.1512951782,0
100381,HYCOUN,Coubertin,43.1195167458,6.1440552228,0
100325,HYBLOS,Blocarde,43.118463269,6.1428190586,0
101279,TOBRGO,Berg,43.1277798524,5.9815742204,0
100564,HYSKPE,Skate Park,43.11667105,6.1461752241,0
100449,HYKERE,Kéraudren,43.1235964016,6.1118582348,0
100508,HYPDMN,Pierre du Moulin,43.1150454995,6.1554601518,0
100413,HYFONN,Fontètes,43.1107052618,6.1687013867,0
100314,HYAYGO,Ayguade,43.1058164286,6.1756187285,0
100395,HYDAVE,Daviddi,43.1044069928,6.1747881715,0
100366,HYCEIO,Ceinturon,43.1005641229,6.1708248937,0
100365,HYCEIE,Ceinturon,43.1004111369,6.1708269775,0
100536,HYPSUE,Plein Sud,43.0966517425,6.1670416388,0
100521,HYPMAE,Pins Maritimes,43.0936125354,6.1639919848,0
100123,CRROSS,Rosacrau,43.1406452424,6.0467853924,0
101278,TOBRGE,Berg,43.1281745503,5.9818693707,0
100298,HYAERN,Aéroport,43.0904243985,6.1605768571,0
100535,HYPSPO,Port St Pierre,43.0855358818,6.1576751279,0
100391,HYCTBE,Costebelle,43.105456212,6.1217531685,0
100782,SEBALE,Balaguier,43.0950617305,5.9088647879,0
100517,HYPLGE,Port La Gavine,43.0813598119,6.1539621925,0
100518,HYPLGO,Port La Gavine,43.0807325502,6.1538960645,0
100540,HYPTNE,Potinière,43.0781929137,6.1539853687,0
100541,HYPTNO,Potinière,43.078241269,6.1538904144,0
100329,HYBONO,Bona,43.0757070553,6.1535751817,0
101246,TOBGNN,Bergonie,43.1282005786,5.9556056213,0
100328,HYBONE,Bona,43.0753190232,6.1536108073,0
100445,HYJBAS,Jean Bart,43.0752623811,6.1496440491,0
100444,HYJBAN,Jean Bart,43.0753925371,6.1492723173,0
100386,HYCPTO,La Capte,43.0656391633,6.1470932248,0
100385,HYCPTE,La Capte,43.0651822299,6.1472960693,0
100592,HYVIGO,La Vigie,43.0608028584,6.14701859,0
100591,HYVIGE,La Vigie,43.0606652131,6.1470953474,0
100578,HYTHAO,Thalasso,43.0580929514,6.1468393196,0
100577,HYTHAE,Thalasso,43.0580890339,6.1469494515,0
100384,HYCPLO,Campéoles,43.0564537381,6.146902602,0
101247,TOBGNS,Bergonie,43.1283396726,5.9565475912,0
100383,HYCPLE,Campéoles,43.0558963628,6.1471478316,0
100575,HYSUMO,Sumar Plage,43.0509471005,6.1467100698,0
100574,HYSUME,Sumar Plage,43.0507197255,6.1467808799,0
100322,HYBERO,Bergerie,43.0481155112,6.1464124237,0
100321,HYBERE,Bergerie,43.0483072617,6.1465845312,0
100529,HYPOUE,Pousset,43.0439871831,6.1459064358,0
100530,HYPOUO,Pousset,43.0437223423,6.1457662988,0
100364,HYCDMO,Chambre des Métiers,43.0412566532,6.1452967311,0
100308,HYARBO,Arbanais,43.0365251887,6.1437946568,0
100307,HYARBE,Arbanais,43.0361802995,6.1438822175,0
100803,SEBTHS,Berthe,43.110284256,5.8644170666,0
100523,HYPOLN,Polynésie,43.0333701487,6.1475340497,0
100524,HYPOLS,Polynésie,43.0330767487,6.1479437579,0
100404,HYESTS,Estérel,43.0301279382,6.1547245254,0
100403,HYESTN,Estérel,43.0303168056,6.1547247795,0
100576,HYTFOO,Tour Fondue,43.0277694358,6.155034116,0
100531,HYPQIL,Presqu'île,43.0307099447,6.1598386965,0
100556,HYSABS,Renée Sabran,43.0378248835,6.1375904824,0
100555,HYSABN,Renée Sabran,43.0380855357,6.1368352127,0
100422,HYGIEE,Giens,43.0384716925,6.1322871787,0
100331,HYBOUO,Bouisson,43.039854971,6.137663099,0
100802,SEBTHN,Berthe,43.1103531273,5.8642371668,0
100362,HYCDLS,Clair de Lune,43.0405223375,6.1251755516,0
100337,HYBRQS,Les Barques,43.0387307226,6.1188657596,0
100515,HYPIEN,Pierras,43.0394482149,6.1140818379,0
100464,HYMADS,Madrague,43.039415579,6.110671019,0
100351,HYCANN,Castéou Négré,43.0402678851,6.1069012309,0
100409,HYFACN,Four à Chaux (Hyères),43.0400267858,6.1040407828,0
100454,HYLAZO,St Lazare,43.1094050165,6.1816527837,0
100453,HYLAZE,St Lazare,43.1095382356,6.1822018678,0
100360,HYCDGO,Cabanes du Gapeau,43.1129563155,6.1887164418,0
100558,HYSBEN,Simone Berriau,43.1140748253,6.193383262,0
100559,HYSBES,Simone Berriau,43.1140394131,6.1941175653,0
100557,HYSALE,Les Salins,43.1155063293,6.1995937892,0
100589,HYVICN,Victoire,43.1153135432,6.1954553568,0
100204,GAJAVO,Jardin Veyret,43.1285016319,6.0139151972,0
100549,HYRIQO,Olbius Riquier,43.1109600827,6.1370314793,0
100548,HYRIQE,Olbius Riquier,43.1109275173,6.1371889278,0
100333,HYBRAO,Branly,43.113497282,6.1344734567,0
100562,HYSIME,Simenon,43.1156722084,6.1332541578,0
101255,TOBLA2,Blache,43.122663813,5.936263427,0
100492,HYNIEE,Niepce,43.1043785719,6.1410160693,0
100520,HYPLYO,Palyvestre,43.0954753795,6.1361564591,0
100519,HYPLYE,Palyvestre,43.0953760942,6.1364199233,0
100512,HYPEUS,Peupliers,43.0930263005,6.1400326438,0
100311,HYARRS,Arromanches,43.0822782171,6.1514093898,0
100596,HYVPHO,VdR pharmacie,43.1270335814,6.1461613935,0
100597,HYVRJE,VdRJ,43.1286467441,6.1455682106,0
100326,HYBLVN,Bellevue,43.1294695047,6.1446893368,0
100585,HYV20E,VdR20,43.1288471567,6.1442305987,0
100582,HYV15O,VdR15,43.1261679142,6.1459689933,0
101240,TOBEGO,Béguin,43.1156948525,5.9605277977,0
100579,HYV12N,VdR12,43.1257220428,6.1468727582,0
100543,HYPVDE,Poste du Vdr,43.1244953517,6.1472213161,0
100398,HYDELS,De Lattre,43.1241195184,6.1481788044,0
100296,HY54RN,Caserne 54ème RA,43.1233274819,6.1451546809,0
100297,HY54RS,Caserne 54ème RA,43.1230688742,6.1445849858,0
100601,HYXVCN,XV ème Corps,43.1217225855,6.139940308,0
100602,HYXVCS,XV ème Corps,43.1217408163,6.1401870966,0
100343,HYBSJS,Beauséjour (Hyères),43.1212711776,6.1371967966,0
100368,HYCHAN,Chateaubriand,43.1230301747,6.1385777665,0
100483,HYMSO1,Mont Soleil 1,43.12620314,6.1429504055,0
101239,TOBEGE,Béguin,43.1157633376,5.9606303229,0
100484,HYMSO2,Mont Soleil 2,43.1266592867,6.1412490689,0
100371,HYCIRN,Cimetière Ritorte,43.1267783314,6.1371307785,0
100506,HYPARO,Paradis (Hyères),43.1256337786,6.1300801582,0
100339,HYBRTN,Brosset (Hyères),43.1202831588,6.1402012516,0
100399,HYDENN,Hyères Centre (Denis),43.1209109857,6.1331455054,0
101249,TOBHBE,Bonnes Herbes,43.1481129806,5.8888709315,0
100320,HYBELO,Soldat Bellon,43.1184641381,6.1278148585,0
100300,HYAICS,Jean Aicard,43.1176080929,6.1270954358,0
100533,HYPROS,Provence (Hyères),43.1177209722,6.1305162208,0
100587,HYVIAE,Victoria,43.1154833122,6.1253716495,0
100688,OLSVIN,St Victor,43.1438660133,5.8843099579,0
100332,HYBRAE,Branly,43.1136579411,6.1345086143,0
100510,HYPETE,Petit,43.1127255848,6.1237413885,0
100424,HYGMAE,Grand Marché,43.1112468528,6.1240983207,0
100419,HYGDFS,Grotte des Fées,43.1078295925,6.120767587,0
100436,HYHILO,St Hilaire,43.1113037627,6.1285953928,0
100435,HYHILE,St Hilaire,43.1109302081,6.1287303773,0
100416,HYGARN,Gare (Hyères),43.1090834071,6.1247416309,0
100417,HYGARS,Gare (Hyères),43.1088379721,6.1250692128,0
101250,TOBIDN,Bidouré,43.1284068643,5.9162272538,0
100431,HYGUYN,Guynemer (Hyères),43.1070091848,6.1274408472,0
100432,HYGUYS,Guynemer (Hyères),43.1070699561,6.1272484347,0
100402,HYES3O,Espace 3000,43.1054812486,6.1279171643,0
100505,HYPANO,Panhard,43.1074908676,6.1214450474,0
100418,HYGDFN,Grotte des Fées,43.1078657992,6.1199965752,0
100476,HYMO1S,Moulin 1er,43.1290244796,6.1561915609,0
102080,REBLEO,Bleuets,43.1723958501,5.927260626,0
100487,HYNARE,Nartettes,43.101197445,6.1310350948,0
100488,HYNARO,Nartettes,43.100872097,6.1313327884,0
101251,TOBIDS,Bidouré,43.1284465078,5.915308798,0
100490,HYNDAO,Notre Dame,43.0967380357,6.1314898421,0
100303,HYAMIE,L'Amiral,43.0938214466,6.1307943742,0
100263,GASACE,Stade (F.Accusano),43.1200056123,6.0109289748,0
100498,HYOLIN,Oliveraie,43.0917907546,6.1264141787,0
100440,HYHORO,Les Horts,43.0910954382,6.1226743743,0
100412,HYFDHO,Font des Horts,43.0861614837,6.1217976988,0
100456,HYLBRN,Léon Bérard,43.0844707804,6.1223001007,0
100347,HYCAIN,Camping International,43.0415875366,6.1281149044,0
100358,HYCASO,Castel,43.0822755546,6.1281683852,0
101252,TOBINN,Binger,43.1143772539,5.975532446,0
100357,HYCASE,Castel,43.0816410355,6.128052978,0
100525,HYPOMN,Pomponiana,43.0808271944,6.1207966982,0
100526,HYPOMS,Pomponiana,43.0807502185,6.1209388827,0
100514,HYPHES,Port Hellène,43.0826753287,6.1176173487,0
100513,HYPHEN,Port Hellène,43.0828138195,6.1175160069,0
100301,HYALMN,Almanarre,43.0800197559,6.125320401,0
100302,HYALMS,Almanarre,43.0799675303,6.1255255574,0
100568,HYSLVN,San Salvadour,43.0845987786,6.1112768106,0
100477,HYMOIN,Mont des Oiseaux (Hyères),43.0849542032,6.1088458904,0
100478,HYMOIS,Mont des Oiseaux (Hyères),43.0848516148,6.1089496086,0
101253,TOBINS,Binger,43.1142771843,5.9763609119,0
100030,CACALS,Californie,43.0851884603,6.1001364728,0
100029,CACALN,Californie,43.0853664831,6.0989087266,0
100049,CAVALE,Valérane,43.0887966976,6.0906039797,0
100050,CAVALO,Valérane,43.0887950143,6.0903952496,0
100048,CAPPES,Pins Penchés 1,43.0900437958,6.0845247414,0
100047,CAPPEN,Pins Penchés 1,43.0903510958,6.0837102466,0
100552,HYROTO,Roche Taillée,43.1238172046,6.1147829447,0
100815,SECASO,Casino,43.080863286,5.8909550196,0
100600,HYVSAL,Vieux Salins,43.1168392432,6.1995482073,0
100034,CACARS,Carqueiranne,43.092161449,6.0774586918,0
101256,TOBLA3,Blache,43.1230010829,5.9366651415,0
100389,HYCSME,Clinique Ste Marguerite,43.1151031049,6.123148919,0
100373,HYCJFS,Collège Jules Ferry,43.1187955547,6.1171544712,0
100372,HYCJFN,Collège Jules Ferry,43.1189259396,6.117027975,0
100460,HYLECS,Mal. Leclerc,43.1205971385,6.1124841286,0
100438,HYHOPO,Hôpital (Hyères),43.1183020695,6.1132912333,0
100572,HYSTJE,St Jean (Hyères),43.1143249757,6.1102678144,0
100573,HYSTJO,St Jean (Hyères),43.1142404894,6.1098571216,0
100469,HYMDLN,Marie des Lions,43.122290578,6.1198153761,0
100443,HYIDOO,Îles d'Or,43.1189547129,6.1220762997,0
100489,HYNDAE,Notre Dame,43.0969208451,6.1316614536,0
100408,HYEUGS,Eugénie,43.121870706,6.1182037727,0
100407,HYEUGN,Eugénie,43.1219477331,6.116784465,0
100433,HYHELN,Hélios,43.1215941027,6.1138020034,0
100434,HYHELS,Hélios,43.1215682984,6.1142791884,0
100481,HYMRLN,Maurels,43.1216610306,6.1103682909,0
100482,HYMRLO,Maurels,43.1220059988,6.1100225455,0
100344,HYBVAE,Beauvallon,43.1243143744,6.1103704051,0
100345,HYBVAO,Beauvallon,43.1241387758,6.1102483728,0
100295,HY3BOS,3èmes Borrels,43.1692683545,6.1929196712,0
100551,HYROTE,Roche Taillée,43.1242484741,6.1145411143,0
101254,TOBLA1,Blache,43.1228931914,5.9358603265,0
100528,HYPOTS,La Poterie,43.1257616856,6.1106495306,0
100527,HYPOTN,La Poterie,43.1257700661,6.1111781125,0
100538,HYPTAE,Pont de l'Auberge,43.1656721839,6.1850962064,0
100539,HYPTAO,Pont de l'Auberge,43.1656761409,6.1849858712,0
100420,HYGENN,Gendarmerie,43.1261466215,6.1066101398,0
100421,HYGENS,Gendarmerie,43.1260606158,6.1070097394,0
100319,HYBAYS,La Bayorre,43.1261816234,6.099723439,0
100318,HYBAYN,La Bayorre,43.1262799616,6.099484274,0
100369,HYCHRN,Chrétienne,43.128584943,6.0927457741,0
100370,HYCHRS,Chrétienne,43.1284686715,6.0929837884,0
100379,HYCOSE,Coste,43.1302337239,6.0885552023,0
100430,HYGUIS,Guiteco,43.131867319,6.0853090428,0
101860,HY1BOO,1ers Borrels,43.1550418203,6.1611386777,0
100292,HY1BOE,1ers Borrels,43.1550391986,6.161212222,0
102022,VACAOS,Caounes,43.1422760923,5.9982757199,0
100554,HYRTWO,Rottweil,43.1266461682,6.1522513275,0
101257,TOBLA4,Blache,43.1231124828,5.9365616092,0
100349,HYCAMN,Camerone,43.1259610479,6.0929305911,0
100350,HYCAMS,Camerone,43.1258798524,6.0929375698,0
100375,HYCLAE,La Clapière,43.1446310271,6.1539112365,0
100561,HYSERS,Col du Serre,43.1138025559,6.0995400981,0
100560,HYSERN,Col du Serre,43.1139735436,6.09928118,0
100739,REABEN,Abeilles d'Or,43.1667286551,5.9275579671,0
100569,HYSLVS,San Salvadour,43.0844589172,6.1116725847,0
100354,HYCAPO,Capucines,43.110531239,6.1137879638,0
100353,HYCAPE,Capucines,43.1106671406,6.1137600535,0
100406,HYETES,Etendard,43.1085818684,6.1170359771,0
100405,HYETEN,Etendard,43.1088204642,6.1166465336,0
100376,HYCLAO,La Clapière,43.1446447981,6.1537770246,0
100293,HY2BON,2èmes Borrels,43.1607087349,6.1676962974,0
101395,TOFABE,Fabié,43.1248725247,5.9361069186,0
101599,TOPCOO,Port de Commerce,43.117073045,5.935361277,0
101598,TOPCOE,Port de Commerce,43.1170044651,5.9355288617,0
101648,TOPPLO,Port de Plaisance,43.1130741223,5.9344606073,0
100565,HYSKPO,Skate Park,43.1166314041,6.1460252618,0
101647,TOPPLE,Port de Plaisance,43.1130700118,5.9345831085,0
102159,CAPENN,Peno,43.0871454327,6.0732550398,0
100242,GAPIES,St Pierre,43.1068720535,5.9917885675,0
100294,HY2BOS,2èmes Borrels,43.1604220074,6.1676649064,0
100550,HYRITE,Ritorte,43.1235549223,6.1415349773,0
100542,HYPTRE,Pt de la Ritorte,43.1259972718,6.1406404074,0
100509,HYPDMS,Pierre du Moulin,43.1147109728,6.1565183981,0
100106,CRMAUE,Maurric,43.1517116971,6.0829292682,0
100080,CRFAUE,Les Faurys,43.1502686797,6.0789164153,0
100081,CRFAUO,Les Faurys,43.1503661145,6.0789596097,0
100114,CRPASN,Pasteur,43.1491553653,6.0814360213,0
100115,CRPASS,Pasteur,43.1490690347,6.0815900997,0
100112,CRNDAN,Notre Dame,43.1464419348,6.084956846,0
100113,CRNDAS,Notre Dame,43.1463543334,6.084889717,0
100057,CRBEAN,Beauséjour (La Crau),43.1463088705,6.0789781585,0
100058,CRBEAS,Beauséjour (La Crau),43.1462255262,6.0795623651,0
100315,HYBANE,B.A.N.,43.0967151847,6.1374656765,0
100053,CRAUDO,Ecole Audibert,43.1533151066,6.0712519765,0
100079,CRESTO,Estagnol,43.1241694452,6.0731545212,0
100078,CRESTE,Estagnol,43.1241651763,6.0732770359,0
100570,HYSTAN,L'Estalle,43.126128383,6.0873787942,0
100571,HYSTAS,L'Estalle,43.1260583285,6.0870672348,0
101305,TOCDEO,Conseil Départemental,43.1291016815,5.9365802393,0
100052,CRAUDE,Ecole Audibert,43.1534800589,6.0711644047,0
100854,SEESPE,Espace Santé,43.1032612203,5.8539962815,0
102120,SIAVEO,Avenir,43.1152643814,5.842270061,0
100107,CRMAUO,Maurric,43.1516339625,6.0820642459,0
100101,CRLIMO,Limans,43.1446268323,6.0789792724,0
100100,CRLIME,Limans,43.1448977707,6.0789477659,0
101261,TOBNPE,Bonaparte,43.1168318024,5.9710469869,0
101101,SILPCO,LEP Coudoulière,43.0985193477,5.8204739061,0
100105,CRMARV,Maraval,43.1688730736,6.0865543974,0
100063,CRCANS,Canniers,43.1689669608,6.0915866705,0
100116,CRPINN,Pinedou,43.1693530309,6.0934060759,0
100117,CRPINS,Pinedou,43.1690965576,6.0937948526,0
100104,CRMARS,Les Martins,43.1683906813,6.0980252291,0
101262,TOBNPO,Bonaparte,43.1163110189,5.9707562851,0
100051,CRAMAS,Les Amandiers,43.167864675,6.1017388774,0
100111,CRNAVS,La Navarre,43.1671519368,6.1048749502,0
101966,CRVENO,La Venne,43.1662935773,6.1057526158,0
100099,CRLAMO,M. Lambert,43.1636752707,6.1019314935,0
101948,CRMREO,Mont Redon,43.1625486687,6.1004569355,0
100089,CRGENO,Genévriers 1,43.1601713367,6.0982248149,0
100127,CRSAUS,Les Sauvans,43.1530556249,6.084368211,0
101592,TOPBOE,Pt de Bois,43.1314701164,5.9039172378,0
100126,CRSAUN,Les Sauvans,43.1534513151,6.0848854178,0
100097,CRJFEN,Jules Ferry,43.1214764179,6.0753248623,0
100098,CRJFES,Jules Ferry,43.1214255631,6.0752356077,0
100128,CRSESN,Stade Estagnol,43.1207726029,6.0782259718,0
100076,CRDDUN,Dumont d'Urville,43.1190692336,6.0674823765,0
100077,CRDDUS,Dumont d'Urville,43.1189991455,6.0674287201,0
100061,CRBOUN,La Bouisse,43.1177667414,6.0607065508,0
100096,CRHODV,Hôtel de Ville,43.1480613519,6.0728271874,0
101593,TOPBOO,Pt de Bois,43.1315100923,5.903796921,0
101471,TOHUIE,Huilerie,43.1451298371,5.9115319941,0
100062,CRBOUS,La Bouisse,43.117783027,6.0610145482,0
101564,TONICN,Nice,43.1322665339,5.9792304988,0
101763,TOVALN,Valérie,43.1129745676,5.9441154619,0
100534,HYPSPE,Port St Pierre,43.0858956892,6.1576744648,0
100833,SECOTO,Collines Tamaris,43.0967886178,5.8985897252,0
100580,HYV12S,VdR12,43.1256723857,6.1470045504,0
100832,SECOTE,Collines Tamaris,43.096709087,5.8988179737,0
101010,SETETO,Terrasses Tamaris,43.0950773968,5.9000178156,0
101009,SETETE,Terrasses Tamaris,43.0950655722,5.9001029859,0
100740,REABES,Abeilles d'Or,43.1666748035,5.9275546041,0
100581,HYV15E,VdR15,43.1261020515,6.1460505936,0
100611,OLBONE,Bonnefont,43.1423400776,5.8478623935,0
100502,HYOURE,Ourlèdes,43.1206913514,6.1859802692,0
100503,HYOURO,Ourlèdes,43.1216293478,6.1864114075,0
100356,HYCARO,Capricorne,43.1244193037,6.1886243072,0
100355,HYCARE,Capricorne,43.1243879825,6.1887450113,0
100479,HYMOTN,Mottura,43.1166649802,6.1888910422,0
100480,HYMOTS,Mottura,43.1166218733,6.1888390425,0
100590,HYVICS,Victoire,43.1151488292,6.1967826349,0
100612,OLBONO,Bonnefont,43.1416745866,5.8484112774,0
101263,TOBNRN,Bonnier,43.1285928138,5.9101116142,0
101130,SIPOSO,La Poste,43.0943945395,5.8383241706,0
100044,CADILT,Diligence,43.1098350411,6.0487398025,0
101264,TOBNRS,Bonnier,43.1285050977,5.9103149084,0
101030,SIAMAE,Aigues  Marine,43.099695053,5.8494830546,0
101143,SIREYE,Collège Reynier,43.0947311905,5.8404062144,0
101507,TOLMAT,La Marquisanne,43.1309225184,5.8900690108,0
100108,CRMOUN,Moutonne,43.1189925401,6.0704609724,0
100109,CRMOUS,Moutonne,43.1189370048,6.0707643203,0
101265,TOBNSN,Bonnus,43.1396775802,5.8891237795,0
100474,HYMO1E,Moulin Premier,43.1291319176,6.1559530763,0
101895,TOSTSE,Strassel,43.1374328711,5.8938974513,0
101732,TOSTSO,Strassel,43.1372072377,5.893650167,0
100042,CADILO,Diligence,43.1094588368,6.0481753992,0
102153,VAHSON,Hameau du Soleil,43.1476866157,5.9798999611,0
101266,TOBNSS,Bonnus,43.1395947737,5.8891800718,0
101883,TOMOUI,Mourillon,43.1083168244,5.9520968102,0
102119,SIAVEE,Avenir,43.1154863604,5.8423572363,0
102124,SIEURS,L'Europe,43.1174239842,5.8427821706,0
102013,TORJOO,Rd Pt du Joncquet,43.1421093119,5.910681065,0
100586,HYV20O,VdR20,43.1285965993,6.1444473491,0
100866,SEGARN,Gare (Seyne/Six Fours),43.1163943717,5.8784917133,0
100868,SEGARS,Gare (Seyne/Six Fours),43.1165097611,5.8782655679,0
101918,CAMAJS,Majorelle,43.096566222,6.0821633471,0
101900,CABASE,Les Bastides,43.0981580078,6.0880846746,0
101930,CAVLLE,Vallon,43.1005539152,6.0892718657,0
102027,VACRAS,Les Craus,43.1409297568,5.9892240251,0
102026,VACRAN,Les Craus,43.1409819359,5.989276467,0
101267,TOBNYO,Bony,43.1308801998,5.9240312686,0
101469,TOHOMO,Hôpital Ste Musse,43.1249689977,5.9748270761,0
101864,OLASTN,Astégiano,43.1205174082,5.8810903873,0
100134,CRVERN,Verdillon,43.158180625,6.0965096213,0
100135,CRVERS,Verdillon,43.1584241253,6.0970047226,0
100733,PRROCN,Roches Bleues,43.106797613,6.0168370811,0
100187,GAGAR1,Gare (La Garde),43.1194785778,6.0100358816,0
100152,GABSJE,Beauséjour (La Garde),43.1206942528,6.0052636887,0
100706,PRBEEE,Bell' Estello,43.0989129511,6.0232920211,0
100707,PRBEEO,Bell' Estello,43.0991939697,6.022966361,0
100374,HYCJOO,Hyères Centre (Joffre),43.1197428907,6.1318405658,0
100993,SESBON,Sous-Bois,43.0916537243,5.872233185,0
100994,SESBOS,Sous-Bois,43.0915051897,5.8721013558,0
100441,HYHOTN,Hôtel de Ville (Hyères),43.1199238991,6.1287582679,0
101459,TOGUIN,Cdt Guilbaud,43.1119433858,5.9482982047,0
101200,TOACAO,Acacias,43.133267021,5.88009528,0
100153,GABSJO,Beauséjour (La Garde),43.120527929,6.0051303057,0
101641,TOPON3,Portes d'Ollioules et de Toulon,43.1284478733,5.8803264845,0
101635,TOPOCN,Porte Castigneau,43.1260616208,5.9226257849,0
101636,TOPOCS,Porte Castigneau,43.125911095,5.9225550116,0
100650,OLMAIS,Mairie (Ollioules),43.1398850079,5.8486827438,0
100055,CRAULN,Les Aulnes,43.154554228,6.0901296175,0
100056,CRAULS,Les Aulnes,43.1545195859,6.0903485008,0
101781,VABROO,Brossolette,43.1372607376,5.9873576494,0
101682,TORFAN,Résidence Favières,43.1626246016,5.9485448994,0
101683,TORFAS,Résidence Favières,43.1624626299,5.9496159343,0
102081,RECHEO,Chemin des Ecoliers,43.1746819275,5.926137639,0
101849,BNMI3S,Milhaud 3,43.1150911848,5.9069408191,0
101850,BNMI6S,Milhaud 6,43.1154778181,5.9026190593,0
101833,BNBVIO,Base de Vie Ouest,43.11787546,5.9067820867,0
101832,BNBVIE,Base de Vie Ouest,43.1178974902,5.9069307732,0
101842,BNESNN,ESNA,43.1203582281,5.910275512,0
101780,VABROE,Brossolette,43.1373895187,5.9875377612,0
101843,BNESNS,ESNA,43.1202211538,5.9103406626,0
101836,BNCSPS,CSP Toulon,43.1229842149,5.9108192053,0
101835,BNCSPN,CSP Toulon,43.1230543814,5.9108726747,0
101841,BNESIO,ESID,43.1235737588,5.9085107491,0
101839,BNESIE,ESID,43.1238303536,5.909177407,0
101855,BNQNOT,Quai Noël,43.1193115591,5.915501898,0
101831,BNBACO,Bassin Castigneau,43.1204367177,5.915203556,0
101830,BNBACE,Bassin Castigneau,43.1204338558,5.9152893188,0
101838,BNDCNO,Naval Group,43.123796901,5.9169227167,0
101837,BNDCNE,Naval Group,43.1239979828,5.9173649588,0
100792,SEBOUO,Boulangerie (La Seyne),43.0893510295,5.8991357764,0
101858,BNROCS,Rocade,43.125520268,5.91486896,0
101857,BNROCN,Rocade,43.1256369429,5.9148762155,0
101859,BNVAUT,Vauban (Base Navale),43.11856842,5.9269714083,0
101854,BNPOPS,Porte Principale,43.1221459639,5.9281031728,0
101848,BNLIGS,Ligurienne,43.123696294,5.9226257161,0
101834,BNCASN,Porte Castigneau,43.1257260091,5.9216348735,0
101845,BNJAUN,Jauréguiberry 1,43.1254603586,5.9188188574,0
101847,BNJAUS,Jauréguiberry 1,43.1253457303,5.9187503296,0
101846,BNJAUO,Jauréguiberry 2,43.1250675063,5.9187330094,0
101844,BNJAUE,Jauréguiberry 2,43.1249993611,5.9188883844,0
100791,SEBOUE,Boulangerie (La Seyne),43.0893216632,5.8992075823,0
101853,BNPOPN,Porte Principale,43.122822774,5.9280349142,0
101884,TOPESS,Pt Escaillon,43.1286909527,5.8898329645,0
101872,SEPOBE,Port de Brégaillon,43.1125053771,5.8835062215,0
101873,SEPOBO,Port de Brégaillon,43.1132212947,5.8833416585,0
101862,HYOURN,L'Ourse,43.1174481797,6.0832769985,0
101269,TOBOUN,Bourgeois,43.1203138252,5.948111463,0
101863,HYOURS,L'Ourse,43.1173519873,6.0839705711,0
101885,TOPOTN,Portes d'Ollioules et de Toulon,43.1283755984,5.8800641807,0
101868,OLTVMN,Technopole Var Matin,43.1274758916,5.8475324417,0
101869,OLTVMS,Technopole Var Matin,43.1274031853,5.8481050837,0
101866,OLTMES,Technopôle de la Mer,43.1268363935,5.8705641926,0
101865,OLTMEN,Technopôle de la Mer,43.1269149654,5.870090164,0
101867,OLTMET,Technopôle de la Mer,43.1267687218,5.8707073759,0
102137,BNESIN,ESID,43.1238703351,5.9090571099,0
102139,BNPMAO,Porte Malbousquet,43.121631489,5.90660996,0
102138,BNPMAE,Porte Malbousquet,43.1215715208,5.9067904011,0
101271,TOBOUS,Bourgeois,43.1198409479,5.9482659462,0
101887,GABOWN,Bowling,43.1436374164,6.0244389577,0
102088,TOELPN,Elisapivote,43.1299449241,5.9699842563,0
102089,TOELPS,Elisapivote,43.1301606724,5.9707837828,0
101709,TOSIDN,Sidi Brahim,43.1385009514,5.916671123,0
101710,TOSIDS,Sidi Brahim,43.1385001096,5.9169658173,0
100850,SEEBRO,Ecole Brassens,43.1118138916,5.8591957345,0
102094,BNGENS,Gendarmerie,43.1227184752,5.9249712285,0
102093,BNDDLS,Dupuy de Lôme,43.1246589459,5.9204633554,0
102095,BNGSBN,GSBdD,43.124423798,5.9245373342,0
102112,HYESPT,Espace 3000,43.106044489,6.1287767417,0
102114,HYGMAO,Grand Marché,43.1111323574,6.1240294015,0
101028,SIAIGE,Aiguebelle,43.1018081427,5.8271897125,0
100118,CRPION,Les Pioux,43.1407371099,6.0516674906,0
102101,GAPATO,Pôle d'Activité Toulon Est,43.1406836677,6.0352546227,0
102100,GAPATE,Pôle d'Activité Toulon Est,43.1408227111,6.0356566018,0
102110,HYES3E,Espace 3000,43.1057887078,6.1283793424,0
102129,TOMUSO,Muséum,43.1410612695,5.9102843477,0
102128,TOMUSE,Muséum,43.1413211326,5.9105829694,0
100151,GABRAO,Brassens,43.1190087674,5.9990542823,0
102127,SINEGO,Négadoux,43.1085381639,5.8430755457,0
102118,HYVIAO,Victoria,43.1153709814,6.1252414767,0
102115,HYLAGN,Agricampus,43.1197404428,6.1509215993,0
100150,GABRAE,Brassens,43.1190669862,5.9991930408,0
102117,HYPERO,Père Eternel,43.1235568793,6.1541340009,0
102116,HYPERE,Père Eternel,43.1243098618,6.1547119941,0
102130,SMPEMS,P.E.M.  Pôle Ecoles Méditérranée,43.0823507448,5.9299521495,0
102135,TOPSUE,Pt de Suve,43.1175598885,5.9813934344,0
102131,CACBZE,Camping Beau Vézé,43.1147075397,6.0563343781,0
102132,CACBZO,Camping Beau Vézé,43.1148434269,6.0563063302,0
102147,TOHLME,HLM Mon Paradis,43.1364277165,5.8943756431,0
102148,TOHLMO,HLM Mon Paradis,43.1365668154,5.894249159,0
102133,TOLROE,Lycée Rouvière,43.1270990138,5.9772579527,0
102134,TOLROO,Lycée Rouvière,43.1271505419,5.9770647471,0
100793,SEBREN,Brégaillon,43.1095362722,5.8783765574,0
102136,HYJJAN,Jean Jaurès,43.119347742,6.1315689312,0
102143,HYBIGN,Bigaradiers,43.1205015901,6.1355619885,0
102157,HYARRE,Arromanches,43.0835050579,6.1495395715,0
102158,HYARRO,Arromanches,43.0830345216,6.1496188494,0
102177,TOBDFN,Bd du Faron,43.1356710986,5.929487854,0
102178,TOBDFS,Bd du Faron,43.1355181685,5.9292204115,0
102180,TOBFNT,Bas Faron,43.1354003196,5.9268306292,0
102165,TOBFNN,Bas Faron,43.1355076095,5.9268496051,0
102169,TOBFNS,Bas Faron,43.1356059245,5.926868021,0
100794,SEBRES,Brégaillon,43.1088912827,5.8783000451,0
102171,TOSTAO,Hôpital Ste Anne,43.132652802,5.9323325201,0
102170,TOSTAE,Hôpital Ste Anne,43.1328840969,5.9324083756,0
102163,BNINFO,Infirmerie Titan,43.1199082935,5.907583442,0
102162,BNINFE,Infirmerie Titan,43.119767141,5.9077711159,0
102184,GATELN,Allée Télémaque,43.1246223107,6.0027022949,0
102185,GATELS,Allée Télémaque,43.1246174628,6.0031071855,0
102182,GALMAN,Louis Masson,43.12398581,6.0000095582,0
102183,GALMAS,Louis Masson,43.1237409865,6.0000676426,0
100598,HYVRJO,VdRJ,43.1286403812,6.1454941052,0
102167,HYAERE,.,43.0898341028,6.1602308339,0
102168,HYAERO,Aéroport,43.0902437824,6.1598407754,0
102166,HYLGHS,Lycée Golf Hôtel,43.130419443,6.1571807001,0
102173,BNPCAS,Ponton Castigneau,43.1163287056,5.9140642123,0
100305,HYANGN,Anglades,43.1302668768,6.1770661154,0
102176,TOQPAE,Quai Pagnol,43.1136767323,5.9400838436,0
100306,HYANGS,Anglades,43.1301458323,6.1771808475,0
102175,BNTORS,Quai des Torpilles,43.1176164046,5.9086197814,0
102181,GACLUI,Pt de la Clue,43.1083894796,5.9984521966,0
100393,HYCTRN,Couture,43.1319054075,6.1722505741,0
100394,HYCTRS,Couture,43.131693964,6.1726294859,0
100742,RECHAS,Château,43.1638590256,5.9294552068,0
100547,HYRENN,Renoir,43.1271534411,6.1308557701,0
100367,HYCEZN,Cézanne (Hyères),43.1254765472,6.1317275788,0
100473,HYMISE,Mistral (Hyères),43.124037471,6.1329956949,0
101287,TOBSTN,Brosset,43.1288187686,5.9030529577,0
101288,TOBSTS,Brosset,43.1287237098,5.9029365552,0
101244,TOBGLN,Bourgarel,43.1131732627,5.9794706191,0
101245,TOBGLS,Bourgarel,43.1130960558,5.979625322,0
101421,TOFPLS,Freppel,43.1108908243,5.9515097019,0
100741,RECHAO,Château,43.1641882355,5.9295617825,0
100485,HYMVNN,Mauvanne,43.1271743125,6.1903070117,0
101285,TOBRUN,Brunet,43.1285863655,5.9657480403,0
101286,TOBRUS,Brunet,43.1284745222,5.9658637791,0
100799,SEBRUS,Bruxelles,43.116375099,5.8506485018,0
100798,SEBRUN,Bruxelles,43.1167308678,5.8499459408,0
101268,TOBOUE,Bourgeois,43.1209084299,5.9486153285,0
100491,HYNICN,St Nicolas,43.1261170576,6.1946940205,0
101861,HYNICS,St Nicolas,43.1260117378,6.1948711656,0
101270,TOBOUO,Bourgeois,43.120741619,5.9474262134,0
101202,TOADRO,Audrain,43.1435090962,5.8912886725,0
100334,HYBRNN,La Baronne,43.126224445,6.1031154765,0
100027,CABEAN,Beau Vézé,43.1009412197,6.0598511845,0
100028,CABEAS,Beau Vézé,43.1008023558,6.0599649434,0
101258,TOBLA5,Blache,43.1232234713,5.9364703288,0
100986,SEROYE,Campagne Roy,43.0764148435,5.8589932944,0
101298,TOBZUS,Bazus,43.1483275006,5.9046310728,0
101297,TOBZUN,Bazus,43.1480639429,5.9041725337,0
100613,OLCACE,Cacoye,43.1360592211,5.8410934301,0
100335,HYBRNS,La Baronne,43.1261277569,6.1035635009,0
100616,OLCAGO,Cagnarde,43.1264957042,5.845606371,0
101201,TOADRE,Audrain,43.143924801,5.8912283861,0
100615,OLCAGE,Cagnarde,43.1267519804,5.8457447802,0
100790,SEBONS,Bonaparte (La Seyne),43.0987565206,5.8913234542,0
100856,SEETOS,Etourneau,43.0983348554,5.8956295685,0
100855,SEETON,Etourneau,43.0983001149,5.8950506184,0
101300,TOCAMO,Camus,43.1318677564,5.8818878584,0
101299,TOCAME,Camus,43.1320240445,5.8820571219,0
100031,CACANE,Canebas,43.0964139,6.0689964636,0
100032,CACANO,Canebas,43.09619682,6.0690314815,0
100131,CRTAMS,Tamagnon,43.1408233274,6.0572247978,0
100141,GAAGOE,Agora,43.1296564935,6.0172186337,0
101013,SETOUS,Tourterelle,43.0969919374,5.8959883427,0
100837,SECRMS,Carmille,43.0987887352,5.8887236827,0
101301,TOCARE,Carnot,43.1296037468,5.9207836345,0
101302,TOCARO,Carnot,43.1290480479,5.921264742,0
100813,SECARS,Carrière,43.0888838701,5.8645905496,0
100033,CACARN,Carqueiranne,43.0924913454,6.0772837691,0
100940,SEOISN,Oiseaux,43.0993456723,5.8949802501,0
102068,SEPTNO,Platanes,43.099059162,5.8976502304,0
100035,CACATN,Carthage (Carqueiranne),43.0916969158,6.0796866119,0
100142,GAAGOO,Agora,43.1295406662,6.0171866642,0
100926,SEMOIT,Mont des Oiseaux,43.0967360493,5.8950275732,0
102069,SERVEO,Rouve,43.1020465,5.8970618225,0
100814,SECASE,Casino,43.0810391264,5.8910762914,0
100617,OLCASE,Cassin,43.136363046,5.8422539888,0
100988,SERVEE,Rouve,43.1020881202,5.8971625825,0
100159,GACASO,Castelles,43.1243463895,6.0157493164,0
100158,GACASE,Castelles,43.1244688161,6.0161132306,0
101303,TOCASN,Castigneau,43.1267550328,5.923405719,0
101203,TOAGUN,Aguillon,43.1158677108,5.9487409114,0
101304,TOCASS,Castigneau,43.1266404073,5.9233371806,0
101350,TOCPBE,Cap Brun,43.1110339079,5.9690973012,0
101351,TOCPBO,Cap Brun,43.1106504906,5.9689994488,0
100808,SECANN,Canniers,43.0843938456,5.8611131888,0
100809,SECANS,Canniers,43.084228213,5.8620477755,0
100154,GAC29N,CD 29,43.1392782855,6.0379277452,0
100155,GAC29S,CD 29,43.1394668429,6.0381978037,0
100631,OLCORN,Cordeille,43.139367561,5.8813675583,0
100632,OLCORS,Cordeille,43.1391811052,5.8812946645,0
100130,CRTAMN,Tamagnon,43.1408980493,6.0568857168,0
100136,GA4CH1,4 Chemins (Pauline),43.1376996862,6.0276200164,0
101204,TOAGUS,Aguillon,43.1158543006,5.9486050281,0
102012,TORJOE,Rd Pt du Joncquet,43.1411807888,5.9107461932,0
101527,TOMART,Collège Marquisanne,43.1295474174,5.8908558971,0
101894,TOMARE,Collège Marquisanne,43.129075878,5.8912442526,0
100074,CRCOUE,Cougourdons,43.1430809416,6.0621489636,0
101968,GA1DFO,1ère DFL,43.1250193776,5.9968705892,0
101967,GA1DFE,1ère DFL,43.12471569,5.9970722884,0
101977,GASALN,Salernes,43.1256695354,5.9994291353,0
101978,GASALS,Salernes,43.1257463078,5.9998146711,0
101975,GAMOME,Montmeyan,43.1268583608,5.9993820228,0
101976,GAMOMO,Montmeyan,43.1268654744,5.9991737288,0
101893,TOEFET,Cours Fénelon,43.1100179503,5.9531243186,0
101973,GAMASN,Masets,43.1127649763,5.9840728622,0
100821,SECENS,Seyne Centre,43.1011069021,5.8836261895,0
101974,GAMASS,Masets,43.1126923467,5.9840928113,0
102052,GAGUES,Guès,43.113873656,5.9813564005,0
101969,GABOSN,Bosquet,43.113075893,5.9804833758,0
102010,TOMIST,Notre Dame des Missions,43.1319595858,5.9516177555,0
101007,SETARN,Tarentelle,43.0899759214,5.8666575414,0
101309,TOCERS,Cerisiers (La Florane),43.1393981465,5.8869696124,0
101162,SIVAOE,Vallée d'Ocre,43.1084303079,5.8477454445,0
101129,SIPETE,Pétugue,43.1036399694,5.8473796162,0
101161,SITHOE,Tholosan,43.105164891,5.8466748441,0
101108,SIMASN,Mascotte,43.0896012582,5.8443763258,0
101099,SILELS,Lelièvre,43.0895848087,5.8484490264,0
100288,GAZACO,Zac Pauline,43.1377967555,6.0336811655,0
100287,GAZACE,Zac Pauline,43.1375074608,6.0337239822,0
101339,TOCMPS,Ch. Mon Paradis,43.1299307908,5.8963806251,0
101308,TOCERN,Cerisiers (La Florane),43.1396834769,5.8878591837,0
101338,TOCMPN,Ch. Mon Paradis,43.1293718931,5.8964197213,0
101368,TODOUE,Douala,43.1316779795,5.8954940841,0
101369,TODOUO,Douala,43.1316808256,5.8954083036,0
101306,TOCEDE,Les Cèdres,43.1354431893,5.8934182988,0
101307,TOCEDO,Les Cèdres,43.1354643905,5.8933213671,0
100160,GACATT,CAT Vert,43.1558646646,6.0493644225,0
100448,HYJJAS,Jean Jaurès,43.1194529964,6.1321529684,0
100342,HYBSJN,Beauséjour (Hyères),43.1213994145,6.1378928956,0
100780,SEBAAN,Barale,43.0842848035,5.865793341,0
100737,PRVIGE,La Vigerie,43.1080116841,6.0184123032,0
100711,PRBERS,Berlioz,43.1071776324,6.0243615172,0
100086,CRGEN1,Genévriers 1,43.1604526478,6.097641148,0
100132,CRVASE,Vallon du soleil,43.1623798323,6.0962926966,0
100087,CRGEN2,Genévriers 2,43.1636716673,6.0940793469,0
100088,CRGEN3,Genévriers 3,43.1656253737,6.0950549051,0
100054,CRAUGI,Augier,43.168621996,6.0950173032,0
101991,HYMA4E,Chemin des Maures 4,43.1460243047,6.1884128605,0
101990,HYMA3E,Chemin des Maures 3,43.1407315369,6.1829975998,0
100781,SEBAAS,Barale,43.0840972491,5.8671191843,0
101989,HYMA2E,Chemin des Maures 2,43.1372339162,6.1746693765,0
101988,HYMA1E,Chemin des Maures 1,43.1330867086,6.1701554524,0
101993,HYSAUE,Rd Pt Sauvebonne,43.172196352,6.118478495,0
101995,OLCFLS,Clinique des Fleurs,43.127535768,5.8790792953,0
101996,OLEPRE,Ecoles,43.1401119816,5.8453193348,0
101941,CRFENO,College Fenouillet,43.1486041666,6.078157036,0
101942,CRGIOO,Ecole J. Giono,43.1475003252,6.0760214834,0
101945,CRMMAN,Ecole M. Mauron,43.1441311174,6.0784925306,0
100823,SECERO,Cerisiers (La Seyne),43.0855644337,5.8809755531,0
101950,CRPAGO,Pagnol,43.1515458341,6.0838152771,0
101952,CRPNIO,Petit Nice,43.1496871102,6.0862985384,0
101963,CRTRAO,Tramontane,43.1170406731,6.0763994967,0
101943,CRGRIS,Grillons,43.1159560905,6.0783547956,0
101953,CRROSE,Roseraie,43.1172620137,6.0793359873,0
101903,CABEN2,Benoite 2,43.1005417393,6.0801022127,0
100822,SECERE,Cerisiers (La Seyne),43.0857406911,5.8810845596,0
101961,CRTNOS,Terre Noire,43.1268713035,6.0489670997,0
101937,CRCJUS,Chemins des Juliens,43.1216616632,6.0508411224,0
101934,CRAUGO,St Augustin,43.1219329324,6.0585818597,0
101951,CRPALN,Louis Palazy,43.1184149773,6.078772521,0
101954,CRRUYE,Ruytèle,43.1325072713,6.0552992537,0
101946,CRMRCE,Maraichers,43.1341086767,6.0560659519,0
101938,CRCLAE,Clairval,43.138172494,6.0571516055,0
101902,CABEN1,Benoite 1,43.1066153076,6.082350853,0
100162,GACESO,Collège Cousteau,43.1272240763,6.0149755318,0
101931,CAVPUO,Vieux Puits,43.0970208051,6.0704227064,0
101907,CACAN2,Canebas 2,43.0934766393,6.062682002,0
101912,CAFONS,Font Brun,43.0869759474,6.0899453189,0
101926,CARAMO,Ramel,43.0909213462,6.0763963402,0
101928,CAROLE,Mat. R. Rolland,43.0946394966,6.0750055908,0
101935,CRBERS,St Bernard,43.1248585599,6.0525455494,0
101962,CRTOUN,Les Tourraches,43.1449738061,6.0534765654,0
101956,CRSTAO,Ch. St Augustin,43.1306628916,6.0451837879,0
100672,OLROSS,Rossignol,43.1468888045,5.8799272422,0
100161,GACESE,Collège Cousteau,43.1277982933,6.0147543717,0
102108,CRRUYO,Ruytèle,43.1323726039,6.0550326521,0
101906,CACAN1,Canebas 1,43.0890913815,6.0571336641,0
101936,CRBMON,Belles Moeurs,43.1461460532,6.0635021741,0
101947,CRMRCO,Maraichers,43.1341291238,6.0557356817,0
101939,CRCLAO,Clairval,43.1381664464,6.0568073167,0
102067,CAGENS,Les Genets,43.0946147451,6.0677138924,0
102071,CRCNAN,College La Navarre,43.1955618872,6.1037501833,0
100038,CACJCS,Collège J.Curie (Carqueiranne),43.0934262069,6.0718831855,0
101905,CABRIE,Beaurivage,43.0882405257,6.0838796705,0
102164,CAARBN,Arbousiers,43.0923185072,6.0569249663,0
101917,CAGRAO,Centre GRAC,43.0892885251,6.07550488,0
101901,CABELE,Bellevue,43.0919840121,6.0665493375,0
101910,CAEXUE,Maternelle St Exupéry,43.0912472175,6.0709195724,0
101920,CAPAGE,Ecole M. Pagnol,43.0927201839,6.0704628586,0
101911,CAFERE,Ecole J. Ferry,43.0946027469,6.07502775,0
101985,HYEXUN,Ecole St Exupery,43.1181683205,6.1422592978,0
100852,SEEJRS,Ecole JJ Rousseau,43.0837632092,5.8707058208,0
102030,VAEPAO,Ecole P.Arene,43.1400224801,5.9907753547,0
102078,HYDOUN,Domaine de l'Ourse,43.119363471,6.083806887,0
102076,HYCHON,Chemin de l'Ourse,43.1206323742,6.0809549563,0
102077,HYCHOS,Chemin de l'Ourse,43.1205592984,6.0809870365,0
101310,TOCEZN,Cézanne (La Beaucaire),43.1339929267,5.8861571455,0
101987,HYGUYT,Ecole Guynemer (Hyères),43.1057167796,6.1268524209,0
101982,HYCRON,Collège Roux,43.1100605273,6.1393169204,0
102145,HYSTES,St Exupéry,43.1168132123,6.1436921684,0
101994,OLCFLN,Clinique des Fleurs,43.1276822041,5.8790023609,0
102073,HYBEAN,Le Béal,43.124351149,6.0906152033,0
102074,HYBEAS,Le Béal,43.1243126467,6.0909442338,0
102075,HYCDFE,Chemin de Fer,43.1204077472,6.1002176184,0
101955,CRSANE,Santolines,43.1190931293,6.0802163328,0
102091,VABOST,Collège Bosco,43.1322129932,5.9937546721,0
100964,SEPLNS,Plaines,43.0835910839,5.8745600219,0
102072,CRRGAN,Rd Point Gavary,43.1292146461,6.0739488339,0
102107,CRLAMS,Lambert,43.1405747026,6.0498637527,0
102106,CRCTMS,Ch. de Terrimas,43.1207241264,6.0547956134,0
102126,SIJACS,Jacquet,43.0832496603,5.8132685434,0
102125,SIJACN,Jacquet,43.0833697518,5.8134475549,0
102113,HYEXLN,Ecole Excelsior,43.1232264861,6.1447059327,0
102146,SEESPO,Espace Santé,43.1039500259,5.853559712,0
102149,TOMIS1,Notre Dame des Missions 1,43.1319657808,5.9514339453,0
100712,PRCEZE,Cézanne (Le Pradet),43.1038326371,6.0238157958,0
102150,TOPIAT,Pins d'Alep,43.1443563682,5.8974698492,0
102152,VAEPAE,Ecole P.Arene,43.1400354196,5.9909235603,0
102160,SEPCHN,Porte des Chantiers,43.1011495547,5.8866847759,0
102161,SEPCHS,Porte des Chantiers,43.1010093038,5.8871179512,0
100713,PRCEZO,Cézanne (Le Pradet),43.1041560025,6.0235664702,0
101174,SMCSGE,Creux St Georges,43.0795427003,5.9267956476,0
101175,SMCSGO,Creux St Georges,43.0797483432,5.9265630955,0
101403,TOFDCN,Fleurs des Champs,43.1223332776,5.972720494,0
100636,OLCTVT,Châteauvallon,43.1469680482,5.877254506,0
101404,TOFDCS,Fleurs des Champs,43.1222153608,5.9727498771,0
101784,VACHAS,Chanterelle,43.140039724,5.9981824967,0
101783,VACHAN,Chanterelle,43.1403871857,5.9988064363,0
100623,OLCHAN,Chapelle (Faveyrolles),43.1380114574,5.8780418845,0
100624,OLCHAS,Chapelle (Faveyrolles),43.1377898331,5.877672102,0
101356,TOCPSN,Chapelle (Siblas),43.1347887161,5.9362238304,0
101357,TOCPSS,Chapelle (Siblas),43.1344242244,5.9369010072,0
101354,TOCPME,Chapelle (des Moulins),43.1589900534,5.9177131901,0
101355,TOCPMO,Chapelle (des Moulins),43.1586840768,5.917718708,0
100163,GACHAE,Chapelle,43.1075643439,5.9912678797,0
101206,TOAICO,Aicard,43.1145670426,5.9408884359,0
100164,GACHAO,Chapelle,43.107506533,5.9911169084,0
101015,SETRAN,Transformateur,43.0826812655,5.8784179102,0
101315,TOCHSO,Chartreuse,43.116375137,5.9566298173,0
101785,VACHVN,Char Verdun,43.1383082228,5.9859134902,0
101014,SETRAE,Transformateur,43.0817709061,5.8790244292,0
100634,OLCTAN,Château d'Eau,43.1381442978,5.8663710954,0
100635,OLCTAS,Château d'Eau,43.1378826048,5.8669445095,0
101319,TOCHVO,Chênes Verts,43.1156956002,5.9453049749,0
101318,TOCHVE,Chênes Verts,43.1156918896,5.9454152303,0
101313,TOCHEN,Chenier,43.1311617639,5.9611336156,0
101205,TOAICE,Aicard,43.1148822002,5.9427496118,0
101314,TOCHES,Chenier,43.131138431,5.9612917839,0
101016,SETRAO,Transformateur,43.0818002587,5.8789526223,0
100779,SEATRO,Atrium,43.0807145659,5.8783337518,0
101322,TOCIGE,Cigalon,43.1507302076,5.914582492,0
101323,TOCIGO,Cigalon,43.1504038483,5.9143902194,0
101325,TOCILO,Cimetière (Lagoubran),43.1240635158,5.8959439937,0
101324,TOCILE,Cimetière (Lagoubran),43.1239811135,5.8959880081,0
100166,GACIMO,Cimetière (La Garde),43.1311034741,6.0106921543,0
100165,GACIME,Cimetière (La Garde),43.1312838042,6.0106791097,0
101320,TOCICN,Cimetière (Central),43.1260776128,5.9390554995,0
101726,TOSTMN,Station Maritime,43.1211789963,5.9306579318,0
101321,TOCICS,Cimetière (Central),43.126104869,5.9393150572,0
100778,SEATRE,Atrium,43.079591313,5.879123448,0
100873,SEGOLS,Golfe,43.0765177639,5.8801488777,0
101326,TOCIRN,Circaëte,43.1144051672,5.9392823998,0
101327,TOCIRS,Circaëte,43.1137062084,5.9397419614,0
100764,SE2CHE,2 Chênes,43.0772035953,5.8759954999,0
100765,SE2CHO,2 Chênes,43.0771880718,5.8759209393,0
100826,SECITN,Citroën,43.115127025,5.8722021457,0
101727,TOSTMS,Station Maritime,43.1204970776,5.9316834739,0
100827,SECITS,Citroën,43.1149069107,5.8715134566,0
100625,OLCLEE,Clémenceau (Ollioules),43.1371337812,5.8503077242,0
100626,OLCLEO,Clémenceau (Ollioules),43.1375132697,5.8497045992,0
101331,TOCLES,Clemenceau,43.1236374011,5.9369996258,0
101330,TOCLEN,Clemenceau,43.123574838,5.9375236685,0
101811,VALPVE,Paul Valéry,43.1298859029,5.9907823958,0
101812,VALPVO,Paul Valéry,43.1297821739,5.9903951345,0
100627,OLCLIN,Clinique (St Martin),43.1378305156,5.8707114668,0
100628,OLCLIS,Clinique (St Martin),43.1377591168,5.8706948002,0
100075,CRCOUO,Cougourdons,43.1427137709,6.0615847278,0
101778,VABOSE,Bosquette,43.1372180938,5.9777632382,0
100169,GACLON,Le Clos,43.1359611999,6.0313525499,0
100170,GACLOS,Le Clos,43.1357129798,6.031508547,0
100947,SEPALO,Palmiers (La Seyne),43.0740056367,5.8728916676,0
101335,TOCLOE,Closerie,43.1198570047,5.9592552281,0
100172,GACLUO,Pt de la Clue,43.1081812054,5.9982302666,0
100171,GACLUE,Pt de la Clue,43.1085238662,5.9987308034,0
100716,PRCLUN,Pt de la Clue,43.1092993181,6.0020945263,0
100717,PRCLUS,Pt de la Clue,43.1092796225,6.0008288963,0
100859,SEFABO,Fabrégas,43.0718950878,5.8719892816,0
101353,TOCPIO,Campus Porte d'Italie,43.1219776721,5.9390198298,0
101336,TOCMAN,Champ de Mars,43.1220808462,5.9404996218,0
101337,TOCMAS,Champ de Mars,43.1213657422,5.9403688931,0
101034,SIAUGO,Augias,43.1092267078,5.8277623451,0
101334,TOCLNO,Collines,43.1302171285,5.8817615941,0
101332,TOCLNE,Collines,43.1298565005,5.8817884904,0
101333,TOCLNN,Collines,43.1298697796,5.8827470728,0
100907,SELENN,L'ensoleillée,43.0923022584,5.8593640208,0
100914,SELOUS,Pas du Loup,43.08208549,5.8825649369,0
100040,CACOLS,Colle Noire (Carqueiranne),43.103902075,6.0546172705,0
100039,CACOLN,Colle Noire (Carqueiranne),43.1039828416,6.0546224877,0
101425,TOFROE,Fort Rouge,43.1423512206,5.9174511484,0
100633,OLCORT,Cordeille,43.1396711655,5.8817055745,0
101349,TOCOVE,Coste Vieille,43.1508564557,5.9107946757,0
100912,SELOUN,Pas du Loup,43.0819160239,5.8836096192,0
101348,TOCOUS,Coupiane,43.1290523206,5.9838283164,0
100137,GA4CH2,4 Chemins (Pauline),43.1375868129,6.0275022388,0
100766,SE4MOE,Quatre Moulins,43.0974279301,5.8782084162,0
100341,HYBSJE,Beauséjour (Hyères),43.121031636,6.1376107397,0
101329,TOCISO,Courlis,43.1174187635,5.9430067747,0
101328,TOCISE,Courlis,43.1180306966,5.9429960156,0
100775,SEATAO,Atalante,43.0820165278,5.8862781499,0
100774,SEATAE,Atalante,43.0819186162,5.8862475766,0
100718,PRCORE,Collet Redon,43.0883979755,6.0264595964,0
100719,PRCORO,Collet Redon,43.0881368836,6.0264674057,0
101341,TOCNRE,Cressonnière,43.1208975639,5.9755396055,0
101342,TOCNRO,Cressonnière,43.120856848,5.9754142531,0
100143,GAAMAN,Amandiers,43.113583505,5.9898823255,0
100839,SECROO,Croisement,43.0954404185,5.8831052654,0
100838,SECROE,Croisement,43.0957217167,5.8841166066,0
101316,TOCHTN,Chatelier,43.139577867,5.8970144174,0
101317,TOCHTS,Chatelier,43.1394906788,5.898286265,0
101435,TOGARE,Gare (Toulon),43.1278374851,5.9294898605,0
101446,TOGOUO,Gouverneur,43.1310006638,5.9531170358,0
100072,CRCOOE,La Coopérative,43.1450408273,6.0663172047,0
100073,CRCOOO,La Coopérative,43.1450643153,6.0661590409,0
100144,GAAMAS,Amandiers,43.113606252,5.9894786506,0
100938,SENDMN,ND de la Mer,43.0831498293,5.8887159503,0
100840,SECURN,Curie,43.103124409,5.873735494,0
100939,SENDMS,ND de la Mer,43.0832775982,5.8892023288,0
101402,TOFCHO,Fours à Chaux,43.1491875172,5.9060847189,0
101401,TOFCHE,Fours à Chaux,43.1493413225,5.9063276474,0
100721,PRDANS,Danio,43.084092238,6.0237786871,0
100720,PRDANN,Danio,43.0844249928,6.0235177779,0
101365,TODBDN,Darboussèdes,43.1358250532,5.9681819,0
101366,TODBDS,Darboussèdes,43.1357430353,5.9682135653,0
101361,TODARE,Dardanelles,43.1283430235,5.9245975411,0
101208,TOAMEO,Ameniers,43.1164204887,5.9807810891,0
101363,TODARO,Dardanelles,43.1285678505,5.9243291429,0
100898,SELAGO,Lagrange,43.0837067011,5.8914495365,0
101362,TODARN,Dardanelles,43.1281894962,5.9254229376,0
100841,SECURS,Curie,43.1031353193,5.8734047862,0
101364,TODARS,Dardanelles,43.1287308183,5.9256408878,0
101786,VADAPE,Daudet,43.1402950708,5.9787931709,0
101787,VADAPO,Daudet,43.1405215207,5.9787460984,0
100173,GADAUE,Daudet,43.1225985923,6.0048080197,0
100174,GADAUO,Daudet,43.1223763254,6.0047324591,0
101376,TODVDN,David,43.1393564831,5.8914864861,0
101207,TOAMEE,Ameniers,43.1165223548,5.9809594161,0
101377,TODVDS,David,43.1392561311,5.8915294095,0
101788,VADEBN,Debussy,43.1312936649,5.9893245145,0
101789,VADEBS,Debussy,43.1312035012,5.9893310703,0
100969,SEPRCO,Parc,43.0849427431,5.8913295338,0
100968,SEPRCE,Parc,43.0853017343,5.8913516963,0
100175,GADELN,Delage,43.1250698603,6.0053953266,0
100176,GADELS,Delage,43.124979449,6.0056719759,0
101367,TODESE,Désirade,43.1512558223,5.9031175719,0
100877,SEHERO,L'Herminier,43.0872605936,5.8908591315,0
101370,TODPZN,Desprez,43.1208501697,5.9596738035,0
101209,TOAMIN,Amigas,43.1218966303,5.9425016354,0
100876,SEHERE,L'Herminier,43.0874735525,5.8909458976,0
101036,SIAUSO,Aussel,43.0988991748,5.8278723753,0
102151,VABOU3,Bouttuen 2,43.1424321701,5.9955466511,0
100932,SEMTAS,Maisons de Tamaris,43.0889911468,5.8942666944,0
100931,SEMTAN,Maisons de Tamaris,43.0890494664,5.8941353234,0
100789,SEBEAO,Beausoleil,43.0902068425,5.8944890619,0
100788,SEBEAE,Beausoleil,43.0901856411,5.894585917,0
100643,OLJAVE,JAS de Ville (Ollioules),43.1379090223,5.8505269991,0
100644,OLJAVO,JAS de Ville (Ollioules),43.1377311197,5.8504670112,0
101406,TOFERS,Ferme des Romarins,43.1394949927,5.8837702214,0
101210,TOAMIS,Amigas,43.1221850223,5.9438211561,0
101405,TOFERN,Ferme des Romarins,43.1396838187,5.8834993982,0
100178,GADRAO,Draguignan,43.1428707471,6.037299103,0
100177,GADRAE,Draguignan,43.1431268742,6.0376963533,0
101372,TODUNO,Dunant,43.1244605695,5.9462230185,0
101371,TODUNE,Dunant,43.1245368065,5.9463628627,0
100467,HYMATN,Mataffe,43.1265683967,6.1491269766,0
101373,TODUPS,Duployé,43.1269518886,5.9563620504,0
101374,TODUSN,Dusserre,43.1293043831,5.8987239993,0
101375,TODUSS,Dusserre,43.1292730425,5.8996675436,0
101380,TOECHN,Echelle,43.1378620024,5.9306685739,0
101775,VAAMPO,Ampère (Coupiane),43.1343771752,5.9972817466,0
101381,TOECHS,Echelle,43.1373382255,5.9304639185,0
101378,TOECBN,Ecoles (Brunet),43.1272770739,5.9621782068,0
101379,TOECBS,Ecoles (Brunet),43.1270952313,5.9619702846,0
100992,SESANS,Sand,43.0917960275,5.8932129174,0
100991,SESANN,Sand,43.0920920868,5.8924213172,0
101390,TOEPSN,Ecoles (Pt de Suve),43.1201380134,5.9767193366,0
101391,TOEPSS,Ecoles (Pt de Suve),43.1196073287,5.9772505331,0
101384,TOEGLN,Eglise,43.1239733415,5.9537435795,0
101385,TOEGLS,Eglise,43.1237924252,5.9532410775,0
100082,CRGARE,La Gare (La Crau),43.1462418288,6.0679919846,0
101774,VAAMPE,Ampère (Coupiane),43.1344936187,5.9975593344,0
100853,SEELMN,St Elme,43.0785675545,5.8994255885,0
100468,HYMATS,Mataffe,43.1263334255,6.1496640166,0
102087,REPRIO,Primevères,43.1679377077,5.9322781446,0
101343,TOCOEN,Covoiturage Escaillon,43.1287243996,5.8874652161,0
101344,TOCOES,Covoiturage Escaillon,43.1286441279,5.8879882509,0
101383,TOEFGO,Escartefigue,43.1318887239,5.9513185843,0
101382,TOEFGE,Escartefigue,43.1324370942,5.9521266815,0
101387,TOELGN,Esclangon,43.1292964292,5.945237067,0
101386,TOELGE,Esclangon,43.1292684881,5.9458001647,0
101792,VAESP2,Espaluns,43.136819112,6.0021531722,0
101213,TOAMPN,Ampère,43.1321521725,5.9621661358,0
101791,VAESP1,Espaluns,43.1369667129,6.0017818535,0
101793,VAESP3,Espaluns,43.1367027888,6.0008193757,0
101794,VAESP4,Espaluns,43.1366355442,6.001208095,0
100857,SEEURE,Europe,43.1141009881,5.8585623607,0
100179,GAEYGE,Eygoutier,43.1182373884,6.0110861776,0
100723,PRESQS,Esquirol,43.109022867,6.0384126195,0
100722,PRESQN,Esquirol,43.1090691315,6.0399377848,0
100930,SEMPTO,Montplaisant,43.0926135654,5.8905269539,0
100929,SEMPTE,Montplaisant,43.0932131265,5.8898031458,0
100901,SELANN,Langevin,43.115414004,5.8539042675,0
100140,GA4CH5,4 Chemins (Pauline),43.1379458332,6.024909253,0
101214,TOAMPS,Ampère,43.1323044668,5.9627160581,0
100902,SELANS,Langevin,43.1152552625,5.854631109,0
101447,TOGR03,Gare Routière (Toulon),43.1276699008,5.9310019796,0
101448,TOGR04,Gare Routière (Toulon),43.1276588726,5.9310626852,0
101449,TOGR05,Gare Routière (Toulon),43.1276196876,5.9311584684,0
101450,TOGR06,Gare Routière (Toulon),43.1275996844,5.9312186133,0
101451,TOGR09,Gare Routière (Toulon),43.127511107,5.9314463782,0
100777,SEATHO,Athéna,43.094737407,5.8885841621,0
100776,SEATHE,Athéna,43.0950670426,5.8886781297,0
101393,TOEVEO,Evenou,43.131118363,5.9496246951,0
101392,TOEVEE,Evenou,43.1311121711,5.9498085029,0
100772,SEANTE,St Antoine,43.0973922548,5.8882570801,0
101394,TOEXOS,Exocet,43.1187673881,5.9529007162,0
100180,GAEYGO,Eygoutier,43.1180266199,6.0109376677,0
100773,SEANTO,St Antoine,43.0980232896,5.8879401156,0
101396,TOFABO,Fabié,43.1245686127,5.9360510727,0
101613,TOPFES,Préfecture,43.1311626115,5.9319815169,0
100083,CRGARO,La Gare (La Crau),43.1460319636,6.0675607201,0
100327,HYBLVS,Bellevue,43.1293775916,6.1447446572,0
100461,HYLOUN,Les Loubes,43.1150306196,6.0955565719,0
101399,TOFBYN,Fabry,43.1133429279,5.964651776,0
101400,TOFBYS,Fabry,43.1131787529,5.9649851561,0
100638,OLFARO,Farlède,43.122049577,5.8473609832,0
100637,OLFARE,Farlède,43.1222883004,5.8474860417,0
101422,TOFREN,Farrère,43.1144040863,5.9505395847,0
101423,TOFRES,Farrère,43.1142577947,5.9511442076,0
101397,TOFARS,Fort D'Artigues,43.1298697199,5.9533160988,0
101612,TOPFEN,Préfecture,43.1311436512,5.9328153487,0
100583,HYV19E,VdR19,43.127803588,6.1442352172,0
100639,OLFAVE,Faveyrolles,43.1348729619,5.8736734799,0
100640,OLFAVO,Faveyrolles,43.1348309143,5.8735849347,0
101797,VAFAVE,Favières,43.1549363741,5.9615631591,0
101798,VAFAVO,Favières,43.1548891505,5.9613636237,0
101398,TOFBLN,Fort Blanc,43.1383496895,5.915544132,0
100584,HYV19O,VdR19,43.1275620046,6.1444525575,0
101602,TOPDSN,Palais des Sports,43.1285832991,5.9133649481,0
101603,TOPDSS,Palais des Sports,43.1284691039,5.9127439021,0
101176,SMFIGN,Figuiers,43.0741796049,5.9110166289,0
101211,TOAMON,Amouretti,43.1169317194,5.9675666605,0
101925,CAQCAN,Quartier Californie,43.0905507277,6.0970139852,0
101407,TOFISE,Fisquet,43.1338203014,5.9124747954,0
100860,SEFLON,Floréal,43.1145035919,5.8621837479,0
100725,PRFLAS,Flamencq,43.1065544485,6.0215596985,0
100724,PRFLAN,Flamencq,43.1066691619,6.0211005897,0
100181,GAFLEN,Fleurie,43.113139353,5.9923584841,0
100182,GAFLES,Fleurie,43.1130297614,5.9931985823,0
101761,TOVAFE,Val Fleuri,43.1328850159,5.9382782959,0
101762,TOVAFO,Val Fleuri,43.1334492796,5.9380802961,0
101411,TOFNEE,Florane,43.1402719755,5.8890990786,0
101212,TOAMOS,Amouretti,43.1168078847,5.9672396491,0
101412,TOFNEO,Florane,43.1402960139,5.8889163436,0
101427,TOFRTE,Florent,43.1479348882,5.9137207585,0
101428,TOFRTO,Florent,43.1477680379,5.9135998346,0
101424,TOFRNS,Florian,43.1177277426,5.9551925593,0
101415,TOFOPN,Font Pré,43.1259892473,5.9702010679,0
101416,TOFOPS,Font Pré,43.1259276697,5.9701603429,0
100501,HYORAO,L'Oratoire,43.138300869,6.1513171048,0
101801,VAFOUN,Fourches,43.1370982349,5.9992479795,0
100493,HYNIEO,Niepce,43.104188541,6.1407948258,0
100500,HYORAE,L'Oratoire,43.137966044,6.1516265343,0
100462,HYLOUS,Les Loubes,43.1148801204,6.0960010045,0
100455,HYLBAE,Lou Baye,43.1217241367,6.1121528785,0
100494,HYOASN,L'Oasis,43.1177619336,6.1201929399,0
100495,HYOASS,L'Oasis,43.1179502594,6.1194440733,0
100883,SEHOTO,Hôtels,43.1062588647,5.8508900847,0
100890,SEJANO,Janas,43.0736959201,5.8571709722,0
100428,HYGROO,Gymnase Rougières,43.1095719114,6.1381306369,0
100427,HYGROE,Gymnase Rougières,43.1101382671,6.1378856841,0
100451,HYKOEO,Koenig,43.1027744764,6.1212822107,0
100382,HYCOUS,Coubertin,43.1193540262,6.1445847187,0
100450,HYKOEE,Koenig,43.1025308894,6.1213030187,0
100120,CRPOUE,Les Pourpres,43.1491676215,6.0702455962,0
100593,HYVLOE,Vélodrome,43.0986579377,6.1214534168,0
101800,VAFLUS,Frères Lumière,43.135912701,5.9997251539,0
101799,VAFLUN,Frères Lumière,43.1358294637,5.9992654517,0
101426,TOFROO,Fort Rouge,43.1423120724,5.9172767645,0
100594,HYVLOO,Vélodrome,43.098616096,6.1213647468,0
101431,TOGAFN,Gafodio,43.1152107488,5.9734981336,0
101220,TOASPO,Asphodèles,43.145386021,5.890557173,0
101432,TOGAFS,Gafodio,43.1153212681,5.9728912892,0
100864,SEGAGO,Gagarine,43.1059688054,5.8785620869,0
100863,SEGAGE,Gagarine,43.1059256213,5.8787803598,0
101434,TOGANS,Gantelme,43.1418035876,5.8925465479,0
101433,TOGANN,Gantelme,43.1418472074,5.8923158928,0
100185,GAGADN,Gardanne,43.1239216387,6.0060956707,0
100186,GAGADS,Gardanne,43.1236627121,6.0055143433,0
101437,TOGARS,Gare (Toulon),43.1272431973,5.9289738787,0
100906,SELBEO,Lycée Beaussier,43.0984089164,5.8792750952,0
101071,SICSIS,Cap Sicié,43.1130464829,5.8175970975,0
101219,TOASPE,Asphodèles,43.1455296254,5.8905660453,0
100642,OLGARS,Gare (Ollioules),43.1225752252,5.8254660609,0
101436,TOGARO,Gare (Toulon),43.1278273888,5.9289857941,0
100507,HYPCHS,Parc Chevaliers,43.0391610559,6.1023166376,0
100867,SEGARO,Gare (Seyne/Six Fours),43.1168478353,5.8778321529,0
100865,SEGARE,Gare (Seyne/Six Fours),43.1170785031,5.8784724363,0
100309,HYARBS,Arbanais,43.036187258,6.1436865015,0
100727,PRGARO,Garonne,43.0930789473,6.0247715208,0
100726,PRGARE,Garonne,43.0932866167,6.0247480084,0
101684,TORGAE,R.Garros,43.127641117,5.9686968137,0
100312,HYATHT,Aeroport Toulon Hyeres,43.0933903065,6.1591292569,0
101685,TORGAO,R.Garros,43.1277682048,5.9675997089,0
100183,GAGACN,Garde Centre,43.1249553563,6.010054,0
100184,GAGACS,Garde Centre,43.1248587353,6.0099864371,0
100189,GAGENO,Geneviève,43.1110990801,5.9843969367,0
100188,GAGENE,Geneviève,43.1111952992,5.9844766898,0
100271,GASGES,St Geneviève,43.1079531674,5.9835469766,0
100272,GASGEN,Ste Geneviève,43.1080662775,5.9833945673,0
101876,TOGINE,Génin,43.1382742904,5.9191500756,0
101441,TOGINO,Génin,43.1380519601,5.9190748252,0
101877,TOGINS,Génin,43.1380299463,5.918926082,0
100138,GA4CH3,4 Chemins (Pauline),43.1371506173,6.0268478902,0
101215,TOAQUN,Aquila,43.1596806797,5.921810462,0
101440,TOGINN,Génin,43.1381168321,5.9190174597,0
101705,TOSGEN,St Georges,43.1140067696,5.956186217,0
101706,TOSGES,St Georges,43.1138637549,5.9566928203,0
101438,TOGENN,Genevoix,43.1287109963,5.9801105525,0
101439,TOGENS,Genevoix,43.1287238134,5.9810568846,0
101457,TOGROE,Groignard,43.1401931019,5.9036721462,0
101458,TOGROO,Groignard,43.1394547021,5.9039702358,0
101049,SICCAS,CCAS,43.0918602486,5.8426733573,0
101516,TOLYAS,Lyautey,43.1280140653,5.9228702574,0
101216,TOAREN,Arènes,43.1352472526,5.9006761107,0
100190,GAGINN,Ginouse,43.1161717721,5.9846570929,0
100191,GAGINS,Ginouse,43.1159092314,5.9849719235,0
101442,TOGLAE,Glacière,43.1337257355,5.9171967489,0
101443,TOGLAO,Glacière,43.1336572077,5.9170942434,0
101444,TOGOEE,Goéland,43.1189696307,5.9396786486,0
100316,HYBANO,B.A.N.,43.0962491383,6.137164882,0
101445,TOGOUE,Gouverneur,43.1306367123,5.9532415153,0
101217,TOARES,Arènes,43.13495192,5.9011735855,0
100121,CRPOUO,Les Pourpres,43.1491355631,6.0701329546,0
100193,GAGPAO,Gare Pauline,43.1360589646,6.0353011697,0
100192,GAGPAE,Gare Pauline,43.1360991885,6.0354388519,0
100442,HYIDON,Îles d'Or,43.1202851103,6.1218445759,0
100729,PRGRAS,Gravettes,43.1084964022,6.0105747667,0
100728,PRGRAN,Gravettes,43.108194944,6.0130719674,0
100387,HYCRIE,Collège Rivière,43.1298348636,6.155410254,0
100068,CRCIME,Cimetière (La Crau),43.1519659902,6.0717663403,0
100122,CRROSN,Rosacrau,43.1406891935,6.0465548593,0
100069,CRCIMO,Cimetière (La Crau),43.1517381903,6.0713338536,0
101455,TOGRIE,Grignan,43.1107966297,5.9323787363,0
101456,TOGRIO,Grignan,43.1102362103,5.9319263675,0
102141,CAGCHO,Grand Chêne,43.090696316,6.0696934505,0
102140,CAGBAO,Grande Bastide,43.0891930688,6.0710194959,0
100400,HYESPE,Espace 3000,43.1070768966,6.1288324907,0
100437,HYHOPE,Hôpital (Hyères),43.11839431,6.1134814612,0
100743,REGUBE,Gubert,43.1653871065,5.9235669515,0
100744,REGUBO,Gubert,43.1652805918,5.923793758,0
101460,TOGUYE,Guynemer,43.1461109429,5.9125878678,0
100310,HYARRN,Arromanches,43.0824908833,6.150993999,0
101461,TOGUYO,Guynemer,43.1458963686,5.9122797445,0
100167,GACITN,Citronniers,43.1171485935,6.0026927086,0
100195,GAGYMN,Gymnase,43.1197737557,6.0085077237,0
100196,GAGYMS,Gymnase,43.1193356068,6.0076448832,0
101248,TOBHAS,Bir Hakeim,43.1210943399,5.9420216466,0
101464,TOHDAE,Hameau Dardennes,43.1637043058,5.9278974312,0
101465,TOHDAO,Hameau Dardennes,43.1634910533,5.9272820735,0
101803,VAHSPE,Hameau du soleil,43.1468812116,5.9781906946,0
101614,TOPFMN,Préfecture Maritime,43.121950765,5.9290977586,0
101804,VAHSPO,Hameau du soleil,43.1466397233,5.9781508394,0
100200,GAHOPO,Hôp. Clémenceau,43.1318151101,6.0159076413,0
100199,GAHOPE,Hôp. Clémenceau,43.131769964,6.0161749228,0
101466,TOHELN,Ste Hélène,43.108599324,5.9415703725,0
101467,TOHELS,Ste Hélène,43.1084931886,5.941784673,0
100198,GAHERS,Herminier (La Garde),43.1285429695,6.0190016387,0
100197,GAHERN,Herminier (La Garde),43.1287108202,6.018828185,0
100957,SEPETE,Pétin,43.1052144677,5.8755331526,0
100544,HYPVDO,Poste du Vdr,43.1244449919,6.1471197423,0
101463,TOHCOO,HLM la Cordeille,43.1390170344,5.8827214295,0
101615,TOPFMS,Préfecture Maritime,43.1216047388,5.9294935947,0
101462,TOHCOE,HLM la Cordeille,43.1391847284,5.8828177333,0
100595,HYVPHE,VdR pharmacie,43.1271541572,6.1460588539,0
100497,HYODSS,Ollivier de Serres,43.1222985562,6.1508210346,0
100878,SEHOPE,Hôpital (La Seyne),43.1090667597,5.8705287865,0
100879,SEHOPO,Hôpital (La Seyne),43.1089537172,5.8704113756,0
100881,SEHORO,Horizons,43.1002216587,5.9010971706,0
100880,SEHORE,Horizons,43.1003860724,5.9012914444,0
100202,GAHVIO,Hôtel de Ville,43.1242408503,6.0093821691,0
100201,GAHVIE,Hôtel de Ville,43.1237979063,6.009709977,0
100745,REHSAE,Haute Salvatte,43.1666897489,5.9206501406,0
100746,REHSAO,Haute Salvatte,43.1666077428,5.9206818907,0
100756,REREVO,Revest,43.1767953257,5.9256059636,0
101473,TOIBIO,Ibis,43.1191113338,5.9405469209,0
101472,TOIBIE,Ibis,43.119389141,5.9405765962,0
101475,TOIRBO,Iris (La Beaucaire),43.1327574281,5.8851722279,0
101474,TOIRBE,Iris (La Beaucaire),43.1329504229,5.8853192079,0
101477,TOIRCS,Iris (Fours à Chaux),43.1506027541,5.9078799708,0
100396,HYDAVO,Daviddi,43.1043242741,6.1745862436,0
101476,TOIRCN,Iris (Fours à Chaux),43.1506084662,5.9077083546,0
100496,HYODSN,Ollivier de Serres,43.1221360754,6.1503313695,0
100466,HYMARO,Marathon,43.1198323338,6.1470721353,0
101479,TOISTS,Isthmia,43.1101981135,5.9730586286,0
101478,TOISTN,Isthmia,43.1102973327,5.9735804687,0
101480,TOITAE,Porte d'Italie,43.1222883678,5.9367310528,0
100888,SEIVAO,Ivaldi,43.0888684598,5.8814120808,0
100887,SEIVAE,Ivaldi,43.089062667,5.8815222001,0
101482,TOJACN,Jacquemin,43.1410767552,5.917371817,0
101218,TOARTO,Artillerie de Marine,43.1123578943,5.9322184911,0
101483,TOJACS,Jacquemin,43.1411951166,5.9167896634,0
100465,HYMARE,Marathon,43.1201365689,6.1471168402,0
101805,VAJAUN,Jaurès,43.136916607,5.9808144624,0
101806,VAJAUS,Jaurès,43.1363429161,5.9815518322,0
100553,HYRTWE,Rottweil,43.1267690038,6.1525910432,0
101487,TOJQIE,Jonquière,43.1441361157,5.9065327688,0
101488,TOJQIO,Jonquière,43.1441724218,5.9062525302,0
101490,TOJQTS,Jonquet,43.1370717576,5.9120628546,0
100139,GA4CH4,4 Chemins (Pauline),43.1370210377,6.0248622427,0
100313,HYAYGE,Ayguade,43.1061186916,6.175467025,0
101489,TOJQTN,Jonquet,43.1374193101,5.9126984972,0
101486,TOJOUS,Jouve,43.1295316092,5.9585381834,0
101874,TOBZLT,Bazeilles,43.1127347057,5.9389445931,0
101485,TOJOUN,Jouve,43.1295476184,5.9583304396,0
101347,TOCOUN,Coupiane,43.1292712377,5.9834738048,0
100041,CADILN,Diligence,43.1083011716,6.0481007436,0
101111,SIMIME,Mimosas (Six Fours),43.1004106158,5.8534416575,0
101875,TOGARN,Gare (Toulon),43.1280068328,5.9292671348,0
101890,SESABT,Sablettes Terminus,43.0804919474,5.8964529622,0
101891,TOBREN,Bon Rencontre,43.1282330298,5.9076826116,0
101892,TOBRES,Bon Rencontre,43.1281636749,5.9081449033,0
101896,TOSUTT,Super Toulon Terminus,43.1382199656,5.9277680255,0
102144,HYDENT,Hyères Centre (Denis),43.1209390735,6.1333683798,0
102155,TOCOVF,Coste Vieille,43.1508723643,5.9108570828,0
101196,TO14JS,14 Juillet,43.1238746429,5.9683731215,0
102179,TOBFNF,Bas Faron,43.1354003196,5.9268306292,0
102172,BNVAUF,Vauban (Base Navale),43.1185096977,5.9268449755,0
102174,HYBSJP,Beauséjour (Hyères),43.1213475994,6.1373246351,0
100893,SEKENN,Kennedy,43.0992235567,5.8842833142,0
100894,SEKENS,Kennedy,43.0985185901,5.8841171463,0
100645,OLKION,Kiosque,43.1335204829,5.8623052844,0
101164,SMASIO,Ste Asile,43.0737121687,5.9080434762,0
100646,OLKIOS,Kiosque,43.1333822277,5.862407329,0
101491,TOKLEN,Kléber,43.1263645926,5.9481719954,0
101492,TOKLES,Kléber,43.1264024521,5.9483831106,0
100043,CADILS,Diligence,43.1080674894,6.0483557369,0
100824,SECIME,Cimetière,43.0963256572,5.8767293445,0
100900,SELAIO,Laiterie,43.0856271507,5.8969913005,0
100899,SELAIE,Laiterie,43.0858152397,5.8972851349,0
101508,TOLMGN,Lamalgue,43.112146201,5.9369191036,0
101509,TOLMGS,Lamalgue,43.1121373349,5.9379865295,0
101494,TOLABO,Lambert,43.1648704694,5.9344331424,0
101032,SIAUDS,Audibert,43.0908027099,5.8480570348,0
101493,TOLABE,Lambert,43.1643827216,5.9336899936,0
101510,TOLMYE,Lamy,43.1363045979,5.9196905759,0
101511,TOLMYO,Lamy,43.1361536595,5.9196320528,0
100921,SEMEDE,Médiathèque (La Seyne),43.1110258448,5.8708454724,0
100922,SEMEDO,Médiathèque (La Seyne),43.1109756282,5.8707319145,0
100207,GALANN,Langevin (La Garde),43.1233696465,6.0138082391,0
100208,GALANS,Langevin (La Garde),43.1233193128,6.013964644,0
101002,SESLAS,St Laurent,43.1116026246,5.868352231,0
101163,SMASIN,Ste Asile,43.0750416346,5.9080891213,0
101001,SESLAN,St Laurent,43.1118320492,5.8676666294,0
101497,TOLAVN,Lavoir,43.1352644013,5.93464484,0
101498,TOLAVS,Lavoir,43.1351513577,5.9347974171,0
101311,TOCFAN,Cours Lafayette,43.1197403456,5.9333304557,0
101312,TOCFAS,Cours Lafayette,43.1192685901,5.93398849,0
100977,SERESS,Restanques (La Seyne),43.098982174,5.8948227835,0
100209,GALEME,Le Mas,43.111704885,5.9877375499,0
100210,GALEMO,Le Mas,43.1115412585,5.9877885488,0
100976,SERESN,Restanques (La Seyne),43.0990050335,5.8949469218,0
100472,HYMIMO,Colline Mimosas,43.1019531708,6.1297592271,0
100235,GAPAPE,Papin,43.1133026211,6.0015392635,0
100211,GALIAN,Lianes,43.1156474687,5.9842064485,0
100212,GALIAS,Lianes,43.115585897,5.9841657158,0
101501,TOLBNN,Liban,43.1363194641,5.9243581621,0
101502,TOLBNS,Liban,43.1359755006,5.9246928502,0
101503,TOLIBI,Liberté,43.1254430645,5.9300893359,0
101505,TOLIBS,Liberté,43.1252006264,5.9306144439,0
100214,GALISO,Liserons,43.1291168834,6.0214083832,0
100037,CACATS,Carthage (Carqueiranne),43.0910191352,6.0810661169,0
101512,TOLOGN,Logis,43.1432295099,5.8858796321,0
100471,HYMIME,Colline Mimosas,43.101344876,6.130173306,0
101513,TOLOGS,Logis,43.1429069123,5.8863878471,0
100215,GALOTE,Loti,43.1103821196,5.990133314,0
100216,GALOTO,Loti,43.1103716835,5.98991169,0
101409,TOFLON,Fort St-Louis,43.1073767862,5.9386092617,0
101410,TOFLOS,Fort St-Louis,43.1072393633,5.9384165427,0
100913,SELOUO,Pas du Loup,43.0832670748,5.8816439033,0
100911,SELOUE,Pas du Loup,43.0828791971,5.881951287,0
100748,REMALN,Malvallon,43.1709219648,5.9213071666,0
100240,GAPDSS,Parc des Sports,43.1354711122,6.0286069103,0
101623,TOPIRN,Les Pins (Les Routes),43.1390124229,5.9026655729,0
100336,HYBRQN,Les Barques,43.0388455451,6.119179831,0
101624,TOPIRS,Les Pins (Les Routes),43.1392432805,5.9016728274,0
100230,GANOLS,La Nôle,43.1181053791,5.9928458438,0
101514,TOLYAE,Lyautey,43.1276216634,5.9225019926,0
101515,TOLYAO,Lyautey,43.127592728,5.9222914493,0
101517,TOLYSN,Lysia,43.1215351707,5.893810958,0
101518,TOLYSS,Lysia,43.1210471965,5.8933388138,0
101521,TOMAGN,Magaud,43.1100733014,5.979384889,0
101522,TOMAGS,Magaud,43.1097320879,5.9796333522,0
100649,OLMAIN,Mairie (Ollioules),43.1398268462,5.848261642,0
101221,TOASSN,Assomption,43.1248865973,5.9602594782,0
101523,TOMAIN,Maison Blanche,43.1101550187,5.9767140003,0
101524,TOMAIS,Maison Blanche,43.1100366862,5.9767556181,0
100651,OLMALE,Malartic,43.1309397865,5.8762190699,0
100652,OLMALO,Malartic,43.1305963013,5.8762716141,0
101525,TOMALN,Malon,43.1220094634,5.954639195,0
101526,TOMALS,Malon,43.1216710775,5.9550721977,0
101017,SETRAS,Transformateur,43.0825515715,5.8785326222,0
100071,CRCOLO,La Colette (La Crau),43.136267094,6.0796022116,0
100747,REMALE,Malvallon,43.1705667059,5.9206337549,0
101222,TOASSS,Assomption,43.1248119013,5.9603407237,0
100749,REMALO,Malvallon,43.1704345329,5.9205517885,0
100916,SEMANN,Manteau,43.0935772245,5.9061833961,0
100917,SEMANS,Manteau,43.0934258796,5.9064071696,0
101532,TOMCUN,Marceau,43.1265494155,5.9512287384,0
101533,TOMCUS,Marceau,43.1262921903,5.9527228672,0
101630,TOPMAE,Port Marchand,43.1167535562,5.9371091306,0
101631,TOPMAO,Port Marchand,43.116443888,5.9372247988,0
101181,SMMARE,Marégau,43.0716671866,5.9073401228,0
101085,SIFAIO,Faisses,43.0785638675,5.8094035197,0
100275,GASMGN,Ste Marguerite,43.1076579557,5.9856150251,0
100324,HYBLON,Blocarde,43.1184169378,6.1431106777,0
100276,GASMGS,Ste Marguerite,43.1076635712,5.9851857551,0
100770,SEALMS,Allée Marie,43.0804958263,5.8890184433,0
100769,SEALMN,Allée Marie,43.0805236083,5.8892655283,0
100070,CRCOLE,La Colette (La Crau),43.1369311851,6.0796454212,0
100919,SEMARO,Marsouin,43.0934251394,5.8812263335,0
100918,SEMARE,Marsouin,43.0936300724,5.8818279731,0
101537,TOMELS,Martelle,43.1527685083,5.9127929671,0
101536,TOMELN,Martelle,43.1521533039,5.9126318755,0
100219,GAMARN,Marthoune,43.1071638567,5.9966802689,0
100946,SEPALE,Palmiers (La Seyne),43.0739942379,5.87296457,0
100330,HYBOUE,Bouisson,43.0399454247,6.1379020394,0
100220,GAMARS,Marthoune,43.1069939855,5.9963871424,0
100682,OLSMAE,St Martin,43.1364476487,5.8722843674,0
100683,OLSMAO,St Martin,43.1362045077,5.8722939857,0
100217,GALSMN,Les Mas,43.1171785264,5.9896931272,0
100218,GALSMS,Les Mas,43.1175694413,5.9906264536,0
101529,TOMASS,Masséna,43.1121226579,5.9349412554,0
101528,TOMASN,Masséna,43.1122116526,5.9347013067,0
101880,TOMNYE,Maunoury,43.1140775995,5.9466152731,0
100228,GAMUNO,Municipaux,43.1145025029,6.0132539384,0
101553,TOMNYO,Maunoury,43.1137522481,5.9471963914,0
101530,TOMAYN,Mayol,43.1188909628,5.9350575419,0
101531,TOMAYS,Mayol,43.1183527438,5.9355517959,0
100920,SEMAZS,Mazen,43.1044084746,5.8773369075,0
100091,CRGOFO,Goys  Fourniers,43.1357222588,6.0769139158,0
100221,GAMCUN,Marie Curie,43.120854922,6.003984744,0
100222,GAMCUS,Marie Curie,43.1208010751,6.0039813122,0
101534,TOMEAE,Mont des Eaux,43.1426554673,5.913183673,0
101535,TOMEAO,Mont des Eaux,43.1427138129,5.9130521987,0
100397,HYDELN,De Lattre,43.1241713541,6.1479857622,0
100227,GAMUNE,Municipaux,43.1150154145,6.0127219743,0
100915,SEMAIE,Mairie (La Seyne),43.1026256664,5.8817560586,0
101540,TOMERO,Mermoz,43.123142223,5.9479820278,0
101538,TOMERE,Mermoz,43.1228325414,5.9480976503,0
101539,TOMERN,Mermoz,43.1233321344,5.947416876,0
101541,TOMERS,Mermoz,43.1232064872,5.9474089916,0
100924,SEMESS,Messidor,43.1088030483,5.8616013653,0
100923,SEMESN,Messidor,43.1086409197,5.8621560567,0
100090,CRGOFE,Goys Fourniers,43.1359235376,6.0773322996,0
100085,CRGAVO,Gavary,43.1297275012,6.0765241906,0
100730,PRMEUN,Meuniers,43.1068890557,6.0183650404,0
100459,HYLECN,Mal. Leclerc,43.1208840405,6.1119995252,0
100731,PRMEUS,Meuniers,43.1067969262,6.017904969,0
102014,VAANGE,Les Anges,43.1433190302,6.0027638978,0
101563,TOMYRS,Meyer,43.1280257631,5.9437084436,0
101542,TOMFAN,Mas du Faron,43.1424441657,5.9216696513,0
102015,VAANGO,Les Anges,43.1433718615,6.0025338923,0
101345,TOCOMN,Covoiturage Ste Musse,43.1290015088,5.9824129456,0
101346,TOCOMS,Covoiturage Ste Musse,43.128931832,5.9828751533,0
101545,TOMICN,Michelet,43.1085813801,5.9474489405,0
101546,TOMICS,Michelet,43.1084643972,5.9471838281,0
101183,SMMIMS,Mimosas,43.0779058775,5.9254545059,0
100359,HYCDGE,Cabanes du Gapeau,43.1129573674,6.1889375104,0
101182,SMMIMN,Mimosas,43.077937721,5.9253092712,0
101547,TOMINE,Mine,43.1421107008,5.8919637281,0
101548,TOMINO,Mine,43.1419226269,5.8919398227,0
101558,TOMRQN,Minorque,43.1376130026,5.8957875469,0
101814,VAMIRO,Mirasouléou,43.135998479,5.9787176526,0
101813,VAMIRE,Mirasouléou,43.1361206163,5.9790938165,0
101878,TOMIRN,Mireille,43.1151383052,5.9442265417,0
101879,TOMIRS,Mireille,43.1150902267,5.9440516594,0
100148,GAAUBO,Aubépine,43.1163826312,5.9982610245,0
101549,TOMITN,Mître,43.1071722915,5.9345213059,0
101550,TOMITS,Mître,43.1070417125,5.9346604379,0
101552,TOMLCO,Malèche,43.1150386372,5.9809513952,0
101551,TOMLCE,Malèche,43.1150413664,5.9811357165,0
101711,TOSMAE,Ste Marthe,43.1323455042,5.9130094033,0
101712,TOSMAO,Ste Marthe,43.1323047148,5.9128840702,0
100224,GAMOCS,Mocquet,43.1308591698,6.0222690647,0
100223,GAMOCN,Mocquet,43.1309475192,6.0220536797,0
101802,VAFOUS,Fourches,43.1369525484,5.999300111,0
100147,GAAUBE,Aubépine,43.1159155401,5.9982435816,0
101157,SISCEE,Square Cesmat,43.1137807468,5.8118721979,0
101560,TOMTGE,Montaigne,43.1451816836,5.904300838,0
101561,TOMTGO,Montaigne,43.1450996839,5.9043325995,0
100226,GAMONO,Montesarchio,43.1319003266,6.0084343313,0
100225,GAMONE,Montesarchio,43.1315054465,6.0084091298,0
101559,TOMSRN,Montserrat,43.1446946361,5.8845452951,0
101012,SETISS,Tisot,43.113837224,5.8657641947,0
100861,SEFLOS,Floréal,43.1146349402,5.8611974677,0
100858,SEEURO,Europe,43.1139805662,5.8583954105,0
102023,VACOUE,Coudon 2,43.1563411054,5.973740422,0
101223,TOAUDE,Audéoud,43.1175184231,5.9461927208,0
101554,TOMOUN,Mourillon,43.1085479113,5.9516448772,0
100684,OLSROE,St Roch,43.1356124495,5.8487043702,0
100685,OLSROO,St Roch,43.1355973074,5.8486174858,0
101543,TOMGTE,Marguerites,43.1338733682,5.9030470061,0
101544,TOMGTO,Marguerites,43.1336901986,5.9031461716,0
101881,TOMORN,Morillot,43.1133671631,5.9492837009,0
101882,TOMORS,Morillot,43.1133017577,5.9496233225,0
100697,OLVANO,Vannelle,43.1330234756,5.8478464054,0
100696,OLVANE,Vannelle,43.1330838963,5.8479237695,0
100630,OLCLOO,Centre Loisirs,43.130468397,5.8470519802,0
101225,TOAUDO,Audéoud,43.1175959944,5.9460257102,0
100629,OLCLOE,Centre Loisirs,43.1303118048,5.8471652152,0
100687,OLSTES,Service Technique,43.1275767886,5.8573489829,0
100686,OLSTEN,Service Technique,43.1277022911,5.8579091896,0
101825,VASMUS,Ste Musse,43.1293552824,5.9862911722,0
101824,VASMUN,Ste Musse,43.1294623622,5.9865803974,0
100937,SEMVIS,Mar Vivo,43.0810890375,5.8871288574,0
100936,SEMVIN,Mar Vivo,43.0812101713,5.8870013707,0
100619,OLCCOE,Ctre Cial Ollioules,43.1227295438,5.8802812773,0
101224,TOAUDN,Audéoud,43.1176094245,5.9472296859,0
100620,OLCCOO,Ctre Cial Ollioules,43.1226426263,5.8801899825,0
101809,VALOGN,Nouveaux logis,43.1313173373,5.9954906402,0
101810,VALOGS,Nouveaux logis,43.1312760045,5.9956476534,0
100715,PRCLNO,Colle Noire (Le Pradet),43.0869836844,6.0267861692,0
100714,PRCLNE,Colle Noire (Le Pradet),43.0867863753,6.0270312116,0
100229,GANOLN,La Nôle,43.1181646563,5.9926900048,0
100084,CRGAVE,Gavary,43.1302347567,6.0769378607,0
100103,CRLMOO,La Moutonne,43.1193793997,6.072782091,0
101184,SMNOUS,Nouméa,43.07188206,5.9122233906,0
101293,TOBZGE,Bouzigues,43.1468791386,5.9022074985,0
101226,TOAUDS,Audéoud,43.1175959122,5.9473638837,0
100607,OLASTS,Astégiano,43.1204248223,5.8811706237,0
101773,VA11NS,11 Novembre,43.1385282429,5.9937140101,0
101772,VA11NN,11 Novembre,43.1385340922,5.9935424386,0
100231,GAOASN,Oasis,43.1197697224,5.9959964555,0
100232,GAOASS,Oasis,43.1194485346,5.9956568126,0
101565,TOOBSS,Observatoire,43.1274895345,5.9221499518,0
100677,OLSBAO,Ste Barbe,43.143048283,5.8383014372,0
100622,OLCENO,Ollioules Centre,43.1375951206,5.847204388,0
100621,OLCENE,Ollioules Centre,43.1377604397,5.8473741219,0
101566,TOOCJE,Octroi (Jonquet),43.1453546025,5.9120741121,0
100348,HYCAIS,Camping International,43.0415712001,6.1283222835,0
101567,TOOCJO,Octroi (Jonquet),43.144725944,5.9117771061,0
101568,TOOCLN,Octroi (Lagoubran),43.1203300174,5.8881135718,0
101569,TOOCLS,Octroi (Lagoubran),43.1206492502,5.8893364298,0
101571,TOOEIO,Oeillets,43.1250831069,5.98179631,0
101570,TOOEIE,Oeillets,43.1254356164,5.981744969,0
100648,OLLANO,Lançon,43.1426349303,5.8369130367,0
100647,OLLANE,Lançon,43.1424801237,5.8372474965,0
100695,OLVACO,Vallon Cros,43.137722782,5.8383457106,0
100694,OLVACE,Vallon Cros,43.1378211123,5.838363976,0
100363,HYCDME,Chambre des Métiers,43.0414022336,6.1455025485,0
100692,OLTOUN,Tourelle,43.1352069101,5.839653889,0
101581,TOOVAN,Olivades,43.1420677912,5.8889152176,0
101582,TOOVAS,Olivades,43.14197398,5.8890322413,0
101573,TOOLVS,Olive,43.1464486263,5.9002769941,0
101572,TOOLVN,Olive,43.146420461,5.9000418782,0
101574,TOOREE,Oliviers (Revest),43.1607591161,5.9234502909,0
101575,TOOREO,Oliviers (Revest),43.1615104516,5.9243817508,0
101577,TOORON,Ollivier (La Rode),43.1196042543,5.945144935,0
101578,TOOROS,Ollivier (la Rode),43.1194839667,5.9449777878,0
100751,REORAN,Oratoire,43.1669092553,5.923502169,0
100752,REORAS,Oratoire,43.1667586425,5.9239719746,0
101580,TOORTO,Ortolan,43.1338290625,5.9641752795,0
101579,TOORTE,Ortolan,43.1341083814,5.9644262212,0
100732,PROURS,Oursinières,43.0845397962,6.0191323385,0
100693,OLTOUS,Tourelle,43.135104578,5.8397581769,0
100710,PRBERN,Berlioz,43.1072366604,6.0244757763,0
100234,GAOUTO,Outremer,43.1089806815,5.9842749504,0
100233,GAOUTE,Outremer,43.1089696233,5.984335626,0
100614,OLCACO,Cacoye,43.1360550502,5.8409458153,0
100046,CAPARO,Paradis (Carqueiranne),43.0984686021,6.0655212311,0
100045,CAPARE,Paradis (Carqueiranne),43.0985280118,6.065623269,0
100945,SEPAGS,Pagnol,43.0986422371,5.9045093141,0
100944,SEPAGN,Pagnol,43.0987609401,5.9041853122,0
101584,TOPALO,Palasse,43.1232783167,5.9703122815,0
101583,TOPALE,Palasse,43.1234010562,5.9704059803,0
101619,TOPIAS,Pins d'Alep,43.1455337763,5.8977638195,0
101618,TOPIAN,Pins d'Alep,43.1455313107,5.8975671472,0
100618,OLCASO,Cassin,43.135768735,5.8417265759,0
101277,TOBRE6,Bon Rencontre,43.128328065,5.9053678034,0
100689,OLSVIS,St Victor,43.1437811823,5.8844275463,0
100671,OLROSN,Rossignol,43.1469682988,5.8796987685,0
101185,SMORVO,E. d'Orves,43.0767959824,5.9271764693,0
101796,VAESPO,Espaluns,43.1380014296,6.0025601114,0
101795,VAESPE,Espaluns,43.1380425333,6.0026732654,0
101417,TOFORN,Forgentier,43.1380762064,5.8937530182,0
101418,TOFORS,Forgentier,43.1376544721,5.894537473,0
101173,SMCLEO,Clément,43.0750927232,5.927818602,0
101172,SMCLEE,Clément,43.0753081115,5.9278320336,0
101585,TOPARE,Paris,43.1309919322,5.9123358513,0
101276,TOBRE5,Bon Rencontre,43.1281314381,5.9058713185,0
101586,TOPARO,Paris,43.1309609459,5.9119164236,0
100657,OLPASS,Passeroses,43.1229588077,5.8277728691,0
101168,SMCABO,Cabestan,43.0742289619,5.9286357312,0
100102,CRLMOE,La Moutonne,43.1194785519,6.0730340926,0
100094,CRHDUS,Haute Durande,43.1180902047,6.0785426757,0
100237,GAPATN,Patinoire,43.1215734743,6.0005926662,0
100238,GAPATS,Patinoire,43.1218031736,6.0015035977,0
100239,GAPDSN,Parc des Sports,43.1355915764,6.0285041096,0
102096,CAPPSO,Pins Penchés 2,43.0885078057,6.0785466267,0
101604,TOPEBN,Petit Bois,43.1143103269,5.9533203957,0
101275,TOBRE4,Bon Rencontre,43.1277834498,5.9057883384,0
101605,TOPEBS,Petit Bois,43.1143001758,5.9541545404,0
101818,VAPCOO,Picasso,43.1326686843,5.9967432234,0
101817,VAPCOE,Picasso,43.1329199736,5.9967592101,0
101601,TOPDAS,Pt Dardennes,43.1629514559,5.9264743374,0
101600,TOPDAN,Pt Dardennes,43.1633445779,5.9273589329,0
100897,SELAGE,Lagrange,43.0835786176,5.8915152445,0
101170,SMCARS,Caravelle,43.0739968182,5.9307312545,0
101606,TOPEGE,Péguy,43.1302397626,5.9482064893,0
101607,TOPEGO,Péguy,43.1300229199,5.9477016968,0
100955,SEPELO,Pêle Mêle,43.111204875,5.8621289859,0
101274,TOBRE3,Bon Rencontre,43.127410565,5.9051021605,0
100954,SEPELE,Pêle Mêle,43.1111980275,5.8623372398,0
101609,TOPELO,Pélican,43.1171705511,5.9410269409,0
101608,TOPELE,Pélican,43.1167547433,5.9413569208,0
100659,OLPEPS,Pépinières,43.1255918616,5.8366621079,0
101169,SMCARN,Caravelle,43.0740327162,5.9307334949,0
100966,SEPLOO,Père Louis,43.0975106343,5.9071636303,0
100965,SEPLOE,Père Louis,43.0980189347,5.9072933363,0
101632,TOPOBN,Péri / Obs,43.1262078973,5.9263184648,0
101634,TOPOBS,Péri / Obs,43.1263076713,5.9249494889,0
101178,SMGEOO,St Georges,43.0744072256,5.9324375233,0
101228,TOBAGE,Baguiers,43.1495774386,5.9027432679,0
101633,TOPOBO,Péri / Obs,43.1267910438,5.9252866002,0
101820,VAPERS,Péri,43.1380922937,5.9904071176,0
101819,VAPERN,Péri,43.1381983135,5.9915191938,0
100958,SEPETO,Pétin,43.104944732,5.8752588222,0
101177,SMGEOE,St Georges,43.0744144934,5.9327569339,0
101589,TOPBMN,Petit Bois (Mourillon),43.1093115752,5.9572657642,0
101590,TOPBMS,Petit Bois (Mourillon),43.109204581,5.9575045366,0
100959,SEPEYN,Peyre,43.1066860299,5.8731810958,0
101179,SMHSMT,Hauts de St Mandrier,43.0763678592,5.9337744785,0
101616,TOPGAE,Pt des Gaux,43.1537336125,5.9151378641,0
